,City,Lat,Lng,Max Temp,Humidity,Cloudiness,Wind Speed,Country,Date
0,Punta Arenas,-53.15,-70.92,50.0,53,75,13.87,CL,1602712421
1,Busselton,-33.65,115.33,54.0,71,1,10.16,AU,1602712422
2,Ostrovnoy,68.05,39.51,34.18,89,100,8.21,RU,1602712423
3,Avarua,-21.21,-159.78,73.4,60,84,5.82,CK,1602712424
4,Albany,42.6,-73.97,63.0,59,6,4.52,US,1602712210
5,Penarth,51.44,-3.18,50.0,87,96,11.41,GB,1602712212
6,Awjilah,29.11,21.29,73.56,36,0,8.43,LY,1602712427
7,Ushuaia,-54.8,-68.3,50.0,46,40,11.41,AR,1602712283
8,Barcelos,41.54,-8.62,54.0,93,0,4.7,PT,1602712429
9,Cape Town,-33.93,18.42,59.0,93,0,3.36,ZA,1602712412
10,Leningradskiy,69.38,178.42,32.25,93,100,9.44,RU,1602712432
11,São Filipe,14.9,-24.5,80.26,79,63,7.63,CV,1602712433
12,Hermanus,-34.42,19.23,57.0,84,8,5.61,ZA,1602712434
13,Sitka,57.05,-135.33,48.2,81,75,4.99,US,1602712435
14,Hilo,19.73,-155.09,87.8,52,1,10.29,US,1602712151
15,Clyde River,70.47,-68.59,21.2,100,20,9.17,CA,1602712437
16,Thompson,55.74,-97.86,32.0,91,75,17.22,CA,1602712438
17,Hobart,-42.88,147.33,59.0,67,75,13.87,AU,1602712304
18,George Town,5.41,100.34,80.6,83,20,2.24,MY,1602712441
19,Rørvik,64.86,11.24,49.59,84,100,15.01,NO,1602712442
20,Grindavik,63.84,-22.43,48.2,81,75,32.21,IS,1602712444
21,Vaini,-21.2,-175.2,77.0,69,75,8.05,TO,1602712445
22,Ginir,7.13,40.7,57.51,86,91,6.69,ET,1602712446
23,Methóni,36.82,21.7,64.99,87,0,4.7,GR,1602712447
24,Cherskiy,68.75,161.3,31.91,92,61,9.37,RU,1602712448
25,Saldanha,-33.01,17.94,59.0,44,0,3.36,ZA,1602712450
26,Evensk,61.95,159.23,38.12,92,100,17.9,RU,1602712411
27,Yellowknife,62.46,-114.35,26.6,58,90,24.16,CA,1602712452
28,Lüderitz,-26.65,15.16,73.85,29,0,10.49,NA,1602712453
29,Maxixe,-23.86,35.35,66.18,84,23,9.19,MZ,1602712454
30,Mahébourg,-20.41,57.7,71.6,88,20,3.36,MU,1602712455
31,Honiara,-9.43,159.95,80.6,88,20,3.36,SB,1602712456
32,Paraná,-31.73,-60.52,72.36,52,25,8.48,AR,1602712457
33,Zhangye,38.93,100.45,41.95,54,0,6.67,CN,1602712460
34,Mataura,-46.19,168.86,48.99,67,0,5.01,NZ,1602712448
35,Pangai,-19.8,-174.35,77.0,61,40,13.87,TO,1602712462
36,Ribeira Grande,38.52,-28.7,69.37,84,28,4.54,PT,1602712463
37,Rikitea,-23.12,-134.97,73.67,81,17,20.22,PF,1602712464
38,Saint Paul Harbor,57.79,-152.41,48.2,70,1,2.01,US,1602712465
39,Nikolskoye,59.7,30.79,45.0,70,90,11.18,RU,1602712342
40,Iqaluit,63.75,-68.51,35.6,96,90,16.11,CA,1602712467
41,East London,-33.02,27.91,62.29,72,8,17.49,ZA,1602712468
42,Bilibino,68.05,166.44,23.32,93,100,2.98,RU,1602712469
43,Bereket,39.24,55.52,53.62,37,0,10.31,TM,1602712365
44,San Roque,36.21,-5.38,64.4,72,0,12.75,ES,1602712471
45,Barrow,71.29,-156.79,26.6,68,90,12.75,US,1602712441
46,Saint-Augustin,51.23,-58.65,45.28,85,100,12.28,CA,1602712474
47,Fortuna,40.6,-124.16,70.0,68,20,14.99,US,1602712475
48,Jamestown,42.1,-79.24,59.0,38,1,9.17,US,1602712476
49,Margate,51.38,1.39,52.0,79,100,4.0,GB,1602712477
50,Bluff,-46.6,168.33,48.99,67,0,5.01,NZ,1602712478
51,Nālūt,30.33,10.85,57.09,35,0,2.1,LY,1602712479
52,Kapaa,22.08,-159.32,84.0,69,1,11.41,US,1602712471
53,Khovd,48.01,91.64,30.83,80,0,4.47,MN,1602712482
54,San Luis,-33.3,-66.34,79.68,18,78,6.58,AR,1602712277
55,Kahului,20.89,-156.47,87.8,48,20,5.82,US,1602712484
56,Port Alfred,-33.59,26.89,60.33,77,0,17.2,ZA,1602712485
57,Buritama,-21.07,-50.15,87.91,34,62,4.45,BR,1602712487
58,Caravelas,-17.71,-39.25,75.22,81,12,10.67,BR,1602712489
59,Airai,-8.93,125.41,62.83,56,76,2.39,TL,1602712490
60,Kaitangata,-46.28,169.85,48.99,52,0,1.99,NZ,1602712489
61,Zhuhai,22.28,113.57,78.8,74,20,21.92,CN,1602712492
62,Mersing,2.43,103.84,77.0,88,100,4.7,MY,1602712493
63,Broken Hill,-31.95,141.43,69.8,35,0,10.29,AU,1602712494
64,Butaritari,3.07,172.79,82.11,75,65,10.74,KI,1602712495
65,Saint-Philippe,-21.36,55.77,73.4,78,40,3.36,RE,1602712496
66,Esperance,-33.87,121.9,57.2,100,90,8.05,AU,1602712497
67,Carnarvon,-24.87,113.63,66.2,77,75,16.11,AU,1602712500
68,Bambous Virieux,-20.34,57.76,71.6,88,20,3.36,MU,1602712501
69,Kloulklubed,7.04,134.26,75.2,100,90,5.03,PW,1602712502
70,Ahipara,-35.17,173.17,58.78,63,17,13.29,NZ,1602712503
71,Lavrentiya,65.58,-171.0,32.86,89,99,13.02,RU,1602712506
72,Tiksi,71.69,128.87,10.9,93,0,3.11,RU,1602712507
73,Mananjary,-21.22,48.33,72.43,88,17,4.03,MG,1602712509
74,Nyurba,63.28,118.33,18.79,97,63,6.6,RU,1602712510
75,Arlit,18.74,7.39,92.39,11,0,6.55,NE,1602712512
76,Cockburn Town,21.46,-71.14,83.68,78,16,11.9,TC,1602712472
77,Acaraú,-2.89,-40.12,79.39,77,71,18.61,BR,1602712514
78,Xai-Xai,-25.05,33.64,64.78,81,0,6.33,MZ,1602712515
79,Khatanga,71.97,102.5,24.51,98,100,14.81,RU,1602712516
80,Ancud,-41.87,-73.82,57.2,41,26,6.93,CL,1602712517
81,Moose Factory,51.26,-80.61,51.8,40,40,9.17,CA,1602712518
82,Kitimat,54.05,-128.65,52.0,74,83,3.0,CA,1602712519
83,Bredasdorp,-34.53,20.04,51.8,93,7,1.12,ZA,1602712520
84,Chui,-33.7,-53.46,55.98,93,3,5.86,UY,1602712521
85,Berlevåg,70.86,29.09,39.2,76,75,12.75,NO,1602712523
86,Cabo San Lucas,22.89,-109.91,89.01,70,20,8.05,MX,1602712524
87,Saskylakh,71.92,114.08,17.46,96,100,15.64,RU,1602712525
88,Goderich,43.75,-81.72,57.99,72,100,1.01,CA,1602712526
89,Gamba,-2.65,10.0,74.79,83,52,7.14,GA,1602712527
90,Nome,64.5,-165.41,30.2,58,40,10.29,US,1602712441
91,Tuatapere,-46.13,167.68,48.99,67,0,5.01,NZ,1602712529
92,Deputatsky,69.3,139.9,13.1,98,100,2.26,RU,1602712530
93,Laguna,38.42,-121.42,93.0,18,20,20.8,US,1602712531
94,Kouroussa,10.65,-9.88,75.24,73,58,1.07,GN,1602712532
95,San Cristobal,7.77,-72.22,86.0,66,40,8.05,VE,1602712291
96,Dunedin,-45.87,170.5,44.01,64,0,4.0,NZ,1602712535
97,Cotacachi,0.3,-78.27,66.2,59,40,16.11,EC,1602712537
98,Atuona,-9.8,-139.03,77.95,74,21,20.62,PF,1602712538
99,Port Elizabeth,-33.92,25.57,60.8,87,0,10.29,ZA,1602712539
100,Constitución,-35.33,-72.42,57.65,80,8,3.76,CL,1602712540
101,Marquette,46.53,-87.63,48.99,89,100,5.01,US,1602712542
102,Nemuro,43.32,145.57,46.54,62,28,8.12,JP,1602712407
103,Talnakh,69.49,88.4,24.8,92,75,17.9,RU,1602712368
104,Guibéroua,6.24,-6.17,71.67,99,83,3.18,CI,1602712545
105,Chokurdakh,70.63,147.92,19.78,98,94,2.13,RU,1602712546
106,Buala,-8.14,159.59,83.28,69,48,3.04,SB,1602712547
107,Porto Velho,-8.76,-63.9,91.4,49,40,3.36,BR,1602712487
108,Sisimiut,66.94,-53.67,34.72,92,100,6.93,GL,1602712549
109,Lebu,-37.62,-73.65,53.17,74,0,15.19,CL,1602712455
110,Pevek,69.7,170.31,33.12,89,98,22.1,RU,1602712552
111,Biak,-0.91,122.88,77.5,78,93,3.83,ID,1602712553
112,Tierralta,8.17,-76.06,81.21,83,62,1.45,CO,1602712554
113,Narsaq,60.92,-46.05,35.6,90,70,2.46,GL,1602712555
114,Yanam,16.73,82.22,75.54,96,75,1.74,IN,1602712421
115,Jiaocheng,24.68,116.14,69.4,90,83,2.8,CN,1602712557
116,Vostok,46.49,135.88,21.31,96,35,6.31,RU,1602712428
117,Show Low,34.25,-110.03,84.2,5,1,12.75,US,1602712559
118,Arraial do Cabo,-22.97,-42.03,73.4,88,75,10.29,BR,1602712560
119,Qaanaaq,77.48,-69.36,31.46,85,23,6.58,GL,1602712562
120,Jiménez,28.33,-105.4,89.6,13,75,5.82,MX,1602712563
121,Haines Junction,60.75,-137.51,39.0,64,0,2.98,CA,1602712564
122,Masterton,-40.96,175.66,51.01,80,89,3.0,NZ,1602712565
123,Biskamzha,53.45,89.53,30.67,96,96,4.81,RU,1602712566
124,Castro,-24.79,-50.01,72.5,63,100,3.49,BR,1602712567
125,Ondangwa,-17.92,15.95,82.4,20,50,4.7,NA,1602712568
126,Nyköping,58.75,17.01,42.8,81,75,8.05,SE,1602712569
127,Praia,14.92,-23.51,78.8,94,40,12.75,CV,1602712570
128,Graham,47.05,-122.29,62.6,48,20,6.93,US,1602712571
129,Iskateley,67.68,53.15,32.86,94,54,12.8,RU,1602712573
130,San Andrés,12.58,-81.7,84.2,79,75,4.7,CO,1602712574
131,Tonshayevo,57.74,47.01,47.39,87,100,5.48,RU,1602712575
132,Tual,-5.67,132.75,81.54,82,100,14.88,ID,1602712576
133,Shellbrook,53.22,-106.4,39.2,35,20,23.04,CA,1602712502
134,Norman Wells,65.28,-126.83,23.0,57,75,11.41,CA,1602712578
135,Mosquera,4.71,-74.23,59.0,77,40,6.93,CO,1602712580
136,Purpe,64.48,76.69,31.23,93,0,14.0,RU,1602712581
137,Kavieng,-2.57,150.8,82.42,73,17,2.15,PG,1602712582
138,Abatskiy,56.29,70.46,50.76,54,100,15.93,RU,1602712583
139,Puerto Ayora,-0.74,-90.35,75.2,73,40,13.87,EC,1602712584
140,Sandy Bay,-42.91,147.35,59.0,72,75,10.29,AU,1602712521
141,Uray,60.12,64.78,37.51,79,100,10.87,RU,1602712587
142,Makakilo City,21.35,-158.09,84.2,62,1,9.17,US,1602712588
143,Bonthe,7.53,-12.51,78.01,87,63,7.67,SL,1602712589
144,Santa Maria,-29.68,-53.81,65.59,77,100,3.24,BR,1602712590
145,Jasper,37.2,-94.35,84.2,35,1,25.28,US,1602712592
146,Baykit,61.67,96.37,39.96,87,100,11.99,RU,1602712593
147,Baijiantan,45.63,85.18,46.2,59,0,5.1,CN,1602712594
148,Maun,-19.98,23.42,80.6,28,0,8.05,BW,1602712595
149,Ixtapa,20.7,-105.2,88.0,66,40,8.05,MX,1602712596
150,Kaeo,-35.1,173.78,60.01,73,3,8.99,NZ,1602712597
151,New Norfolk,-42.78,147.06,55.99,82,100,3.96,AU,1602712598
152,Aklavik,68.22,-135.01,26.6,58,20,2.24,CA,1602712600
153,Mar del Plata,-38.0,-57.56,55.4,50,0,17.22,AR,1602712601
154,Porto-Novo,6.5,2.6,78.8,83,20,9.17,BJ,1602712602
155,Necochea,-38.55,-58.74,51.01,78,0,5.99,AR,1602712603
156,Umluj,25.02,37.27,82.69,45,0,5.21,SA,1602712604
157,Javānrūd,34.8,46.52,44.67,57,0,2.64,IR,1602712605
158,Sapa,5.15,120.32,81.64,77,83,6.8,PH,1602712606
159,Arauco,-37.25,-73.32,59.0,77,0,10.29,CL,1602712607
160,Dalby,-27.18,151.27,60.8,72,0,5.82,AU,1602712608
161,Ampanihy,-24.7,44.75,61.7,81,0,10.16,MG,1602712610
162,Upernavik,72.79,-56.15,33.57,87,44,4.79,GL,1602712611
163,Acajutla,13.59,-89.83,86.0,55,20,3.36,SV,1602712430
164,Zhigalovo,54.81,105.16,30.94,97,100,5.03,RU,1602712615
165,Machhlīshahr,25.68,82.42,78.8,94,0,3.36,IN,1602712617
166,Salym,60.06,71.48,38.37,91,100,13.69,RU,1602712618
167,Rio Grande,-32.03,-52.1,59.11,88,12,8.39,BR,1602712619
168,Beringovskiy,63.05,179.32,41.09,87,100,13.71,RU,1602712620
169,Padang,-0.95,100.35,77.97,75,99,3.42,ID,1602712621
170,Torbay,47.67,-52.73,51.01,76,75,18.34,CA,1602712622
171,Hithadhoo,-0.6,73.08,82.2,76,22,12.64,MV,1602712623
172,Samarai,-10.62,150.67,79.25,83,30,15.17,PG,1602712626
173,‘Ewa Beach,21.32,-158.01,84.2,62,1,9.17,US,1602712627
174,Boralday,43.36,76.86,37.4,69,0,4.47,KZ,1602712628
175,Westfield,42.13,-72.75,69.8,35,1,8.05,US,1602712350
176,Lumphat,13.49,106.98,72.18,96,100,1.3,KH,1602712630
177,Yangi Marg`ilon,40.43,71.72,50.0,71,0,6.93,UZ,1602712632
178,Dalvik,65.97,-18.53,42.8,70,100,12.75,IS,1602712633
179,Ipswich,52.06,1.16,48.0,93,75,10.29,GB,1602712634
180,Lugovoy,42.95,72.76,45.28,55,0,2.8,KZ,1602712636
181,Chernyshevskiy,63.01,112.47,24.93,97,100,10.07,RU,1602712637
182,Lagoa,39.05,-27.98,68.77,81,32,6.06,PT,1602712638
183,Caborca,30.58,-111.1,96.01,24,34,4.0,MX,1602712639
184,Dingle,11.0,122.67,74.71,90,100,5.95,PH,1602712640
185,Gallup,35.53,-108.74,82.4,5,1,18.34,US,1602712641
186,Houston,29.76,-95.36,89.6,48,40,5.82,US,1602712572
187,Vanimo,-2.67,141.3,79.52,84,100,4.99,PG,1602712643
188,Umeå,63.83,20.26,39.2,80,0,10.29,SE,1602712644
189,Vila Franca do Campo,37.72,-25.43,69.8,83,40,9.17,PT,1602712645
190,Riviere-au-Renard,49.0,-64.4,51.8,93,75,5.82,CA,1602712646
191,Severo-Kuril'sk,50.68,156.12,44.19,74,41,11.25,RU,1602712349
192,Hualmay,-11.1,-77.61,65.48,74,17,9.86,PE,1602712650
193,Andenes,69.31,16.12,39.2,80,100,16.11,NO,1602712416
194,Hong Kong,22.29,114.16,78.01,75,87,1.01,HK,1602712625
195,Marsá Maţrūḩ,31.35,27.25,77.0,73,20,6.93,EG,1602712653
196,Okhotsk,59.38,143.3,29.25,89,90,9.46,RU,1602712654
197,Laas,46.62,10.7,43.0,74,5,1.83,IT,1602712655
198,Pisco,-13.7,-76.22,66.2,68,7,8.05,PE,1602712465
199,Okato,-39.2,173.88,46.99,75,72,25.01,NZ,1602712657
200,Faanui,-16.48,-151.75,78.84,80,5,10.78,PF,1602712658
201,Paka,4.64,103.44,77.0,94,100,2.24,MY,1602712660
202,Tilichiki,60.47,166.1,40.24,99,100,19.19,RU,1602712662
203,Laela,-8.57,32.05,67.46,67,8,3.38,TZ,1602712663
204,Yaring,6.87,101.37,78.67,81,100,10.54,TH,1602712665
205,Yakeshi,49.28,120.73,23.61,85,0,6.67,CN,1602712666
206,Kushiro,42.98,144.37,46.58,67,51,11.25,JP,1602712423
207,Coquimbo,-29.95,-71.34,60.8,67,20,12.75,CL,1602712668
208,Zambezi,-13.54,23.1,67.91,80,45,4.74,ZM,1602712670
209,Bilma,18.69,12.92,88.34,13,0,8.12,NE,1602712672
210,Nouadhibou,20.93,-17.03,78.8,65,37,13.87,MR,1602712399
211,Yulara,-25.24,130.99,62.6,27,0,5.82,AU,1602712674
212,Gemena,3.25,19.77,71.22,94,98,1.59,CD,1602712675
213,Grand Gaube,-20.01,57.66,71.01,82,4,3.0,MU,1602712677
214,Korla,41.76,86.15,49.1,46,0,8.21,CN,1602712679
215,Brae,60.4,-1.35,46.4,70,98,6.93,GB,1602712682
216,Toamasina,-18.17,49.38,69.8,94,40,4.7,MG,1602712683
217,Longyearbyen,78.22,15.64,28.4,79,75,2.24,SJ,1602712685
218,Poconé,-16.26,-56.62,91.8,33,71,5.77,BR,1602712686
219,Gillette,44.29,-105.5,51.8,34,1,31.09,US,1602712687
220,Vila Velha,-20.33,-40.29,82.0,78,93,13.87,BR,1602712688
221,Akhmīm,26.56,31.75,77.0,38,0,6.93,EG,1602712689
222,North Bend,43.41,-124.22,73.99,59,1,14.99,US,1602712690
223,Podor,16.65,-14.96,89.6,59,27,5.01,MR,1602712691
224,Ndélé,8.41,20.65,72.5,89,88,2.89,CF,1602712692
225,Nhulunbuy,-12.23,136.77,80.6,78,75,11.41,AU,1602712693
226,Vanavara,60.34,102.28,31.51,98,100,12.08,RU,1602712695
227,Lima,-12.04,-77.03,64.4,72,90,12.75,PE,1602712566
228,Namatanai,-3.67,152.43,81.25,75,54,4.34,PG,1602712697
229,Nanortalik,60.14,-45.24,36.7,85,4,2.39,GL,1602712698
230,Kismayo,-0.36,42.55,78.49,81,16,12.46,SO,1602712699
231,Geraldton,-28.77,114.6,53.6,87,57,5.82,AU,1602712700
232,Flinders,-34.58,150.86,70.0,80,89,4.0,AU,1602712701
233,Jardim,-21.48,-56.14,86.9,43,14,6.33,BR,1602712702
234,Mareeba,-17.0,145.43,78.01,69,41,12.75,AU,1602712703
235,Ambon City,-3.7,128.18,77.0,94,40,3.36,ID,1602712704
236,Novovorontsovka,47.5,33.92,58.82,71,0,8.14,UA,1602712705
237,Urubichá,-15.38,-62.95,93.7,30,63,3.29,BO,1602712706
238,San Juan,-31.54,-68.54,69.85,43,99,15.12,AR,1602712409
239,Dhidhdhoo,6.88,73.1,81.93,79,100,25.08,MV,1602712709
240,Rawson,-43.3,-65.1,59.18,33,22,22.15,AR,1602712710
241,Waipawa,-41.41,175.52,48.2,66,93,29.97,NZ,1602712711
242,Tasiilaq,65.61,-37.64,37.4,86,95,2.98,GL,1602712712
243,Banyo,6.75,11.82,66.06,89,84,1.57,CM,1602712713
244,Muli,2.92,73.57,81.57,80,100,19.62,MV,1602712715
245,Rach Gia,10.02,105.08,77.0,100,75,3.36,VN,1602712716
246,Benghazi,32.12,20.07,71.31,61,0,8.77,LY,1602712717
247,Leh,34.17,77.58,37.2,62,0,3.11,IN,1602712718
248,Lincoln,40.8,-96.67,70.0,29,46,1.01,US,1602712719
249,Loíza,18.43,-65.88,82.4,74,40,3.36,PR,1602712720
250,San Marcos,33.14,-117.17,93.99,32,1,9.17,US,1602712482
251,Mount Isa,-20.73,139.5,77.0,44,0,11.41,AU,1602712724
252,Isla Vista,34.41,-119.86,91.0,19,1,4.7,US,1602712725
253,São João da Barra,-21.64,-41.05,78.8,78,92,6.93,BR,1602712726
254,Río Gallegos,-51.62,-69.22,57.2,44,40,9.17,AR,1602712727
255,Churintzio,20.15,-102.07,77.83,46,32,3.33,MX,1602712728
256,Galesong,-5.32,119.37,77.0,88,20,1.12,ID,1602712729
257,Aragarças,-15.9,-52.25,86.99,39,47,0.92,BR,1602712730
258,Belogorsk,50.92,128.46,26.44,86,38,6.02,RU,1602712731
259,Iracoubo,5.48,-53.2,81.63,73,0,11.16,GF,1602712733
260,Gonder,12.6,37.47,56.88,82,96,4.25,ET,1602712734
261,Kristinestad,62.27,21.38,41.22,78,3,2.06,FI,1602712735
262,Jalingo,8.88,11.37,75.78,86,82,1.52,NG,1602712736
263,Belmonte,-15.86,-38.88,77.0,73,12,11.41,BR,1602712738
264,Klaksvík,62.23,-6.59,44.6,81,54,5.39,FO,1602712739
265,Balkhash,46.84,74.98,47.73,72,0,3.42,KZ,1602712741
266,Peniche,39.36,-9.38,62.01,83,0,4.0,PT,1602712742
267,San Quintín,30.48,-115.95,81.37,46,0,7.83,MX,1602712743
268,Conde,-7.26,-34.91,77.0,83,40,9.17,BR,1602712744
269,Bandarbeyla,9.49,50.81,79.12,85,63,15.14,SO,1602712745
270,Manakara,-22.13,48.02,71.2,90,29,2.89,MG,1602712747
271,Mamakan,57.82,114.0,27.77,93,100,5.79,RU,1602712748
272,Ponta do Sol,32.67,-17.1,69.8,83,40,18.34,PT,1602712749
273,Wasilla,61.58,-149.44,46.0,56,90,5.82,US,1602712750
274,Piracanjuba,-17.3,-49.02,73.47,71,70,12.5,BR,1602712536
275,Christchurch,-43.53,172.63,48.99,70,37,10.29,NZ,1602712612
276,Riyadh,24.69,46.72,69.8,28,0,1.21,SA,1602712677
277,Anadyr,64.75,177.48,39.2,80,75,2.24,RU,1602712754
278,Souillac,-20.52,57.52,71.6,88,20,3.36,MU,1602712755
279,Bethel,41.37,-73.41,66.2,42,1,10.29,US,1602712756
280,Eydhafushi,5.1,73.07,82.22,78,99,22.66,MV,1602712758
281,Uribia,11.71,-72.27,84.07,69,100,9.46,CO,1602712759
282,New Bedford,41.64,-70.93,64.0,72,2,10.87,US,1602712760
283,Bridlington,54.08,-0.19,48.99,93,53,5.82,GB,1602712762
284,Cedar City,37.68,-113.06,80.6,10,1,6.93,US,1602712763
285,Miraflores,19.22,-98.81,77.0,31,75,9.17,MX,1602712764
286,Puri,19.8,85.85,77.0,100,75,2.24,IN,1602712765
287,Warsaw,52.23,21.01,48.0,93,20,5.82,PL,1602712567
288,Pangnirtung,66.15,-65.71,37.4,59,90,32.21,CA,1602712769
289,Cidreira,-30.18,-50.21,61.56,81,65,8.16,BR,1602712770
290,Kavaratti,10.57,72.64,81.82,78,91,21.27,IN,1602712771
291,Alamosa,37.47,-105.87,78.8,8,1,11.41,US,1602712609
292,Saurimo,-9.66,20.39,66.67,94,98,4.14,AO,1602712773
293,Suifenhe,44.4,131.17,25.86,88,0,3.42,CN,1602712774
294,Solnechnyy,50.72,136.63,27.23,78,15,3.44,RU,1602712775
295,Bengkulu,-3.8,102.27,75.79,87,100,2.62,ID,1602712776
296,Mandalgovi,45.76,106.27,27.45,87,92,7.54,MN,1602712777
297,Port Hedland,-20.32,118.57,71.6,78,0,9.17,AU,1602712781
298,Birjand,32.87,59.22,41.0,17,0,6.93,IR,1602712782
299,Sorbhog,26.5,90.87,73.89,76,48,1.97,IN,1602712783
300,Muros,42.78,-9.06,50.0,91,1,1.01,ES,1602712784
301,Zunyi,27.69,106.91,57.81,94,100,3.78,CN,1602712785
302,Lakatoro,-16.1,167.42,80.11,76,99,5.99,VU,1602712786
303,Rawlins,41.79,-107.24,57.2,16,1,34.45,US,1602712787
304,Sungai Penuh,-2.08,101.38,64.09,85,100,1.07,ID,1602712788
305,Puerto Madero,14.72,-92.42,87.8,79,40,11.41,MX,1602712789
306,Arrondissement de Clermont,49.5,2.42,48.2,87,100,10.29,FR,1602712790
307,Sur,22.57,59.53,76.98,50,0,9.93,OM,1602712791
308,Aksay,47.26,39.87,51.8,81,0,6.71,RU,1602712792
309,Tanout,14.97,8.89,91.98,14,0,9.8,NE,1602712794
310,Karaton,-6.34,106.1,79.0,94,20,5.82,ID,1602712795
311,Makkah al Mukarramah,21.43,39.83,79.23,19,0,5.55,SA,1602712796
312,Hasaki,35.73,140.83,63.0,93,75,8.05,JP,1602712797
313,Muscat,23.61,58.59,71.6,46,0,4.63,OM,1602712501
314,Shaping,22.75,112.96,75.99,90,100,3.0,CN,1602712799
315,Coahuayana Viejo,18.73,-103.68,84.2,66,40,11.41,MX,1602712800
316,Florø,61.6,5.03,44.6,70,3,5.82,NO,1602712801
317,Dikson,73.51,80.55,29.48,91,100,22.15,RU,1602712803
318,Puerto Escondido,15.85,-97.07,87.8,66,75,8.05,MX,1602712805
319,Kirakira,-10.45,161.92,83.34,71,25,5.06,SB,1602712806
320,Darhan,49.49,105.92,30.81,83,2,4.16,MN,1602712808
321,Njombe,-9.33,34.77,59.22,90,37,10.54,TZ,1602712809
322,Vestmannaeyjar,63.44,-20.27,48.13,80,99,32.01,IS,1602712810
323,Cornwall,45.02,-74.73,59.0,38,1,5.82,CA,1602712664
324,Yenagoa,4.92,6.26,75.04,96,99,3.47,NG,1602712813
325,Mergen,49.18,125.22,27.61,85,0,6.29,CN,1602712814
326,Parrita,9.52,-84.32,68.0,94,75,4.7,CR,1602712816
327,Zhezkazgan,47.8,67.71,47.35,57,0,3.15,KZ,1602712817
328,Mount Gambier,-37.83,140.77,57.2,93,75,4.7,AU,1602712818
329,Marang,5.21,103.21,77.0,88,20,4.7,MY,1602712820
330,Moussoro,13.64,16.49,91.81,24,1,8.81,TD,1602712821
331,Lárdos,36.09,28.02,73.4,73,20,10.29,GR,1602712822
332,Waitati,-45.75,170.57,46.0,61,0,8.01,NZ,1602712823
333,Bira,49.0,132.47,27.34,88,41,2.46,RU,1602712825
334,Omboué,-1.57,9.26,75.42,81,76,8.95,GA,1602712826
335,Zhangjiakou Shi Xuanhua Qu,40.61,115.04,42.71,63,1,2.06,CN,1602712827
336,Kupang,-10.17,123.58,71.6,78,20,2.46,ID,1602712829
337,Uyemskiy,64.47,40.85,33.8,90,90,4.47,RU,1602712830
338,Al Bardīyah,31.76,25.09,70.63,64,0,5.3,LY,1602712832
339,Shingū,33.73,135.98,61.56,78,4,5.26,JP,1602712833
340,Half Moon Bay,37.46,-122.43,86.0,53,1,17.22,US,1602712835
341,Mossamedes,-15.2,12.15,65.66,79,62,1.39,AO,1602712836
342,Monte Alegre,-2.01,-54.07,84.9,56,59,3.76,BR,1602712837
343,Il’inskiy,55.62,38.12,53.6,93,99,2.24,RU,1602712839
344,Gujan-Mestras,44.63,-1.07,48.2,93,25,3.36,FR,1602712840
345,Maralal,1.1,36.7,60.91,85,82,6.8,KE,1602712841
346,Abilene,32.45,-99.73,97.0,26,1,14.99,US,1602712643
347,Champerico,14.3,-91.92,84.2,79,75,6.93,GT,1602712843
348,Lasem,-6.69,111.45,77.85,81,67,9.24,ID,1602712844
349,Turukhansk,65.82,87.98,24.55,98,82,8.75,RU,1602712845
350,Beisfjord,68.38,17.6,41.0,80,96,16.11,NO,1602712847
351,Lorengau,-2.02,147.27,82.51,75,95,6.24,PG,1602712850
352,Vardø,70.37,31.11,33.8,74,75,10.29,NO,1602712851
353,Alofi,-19.06,-169.92,77.0,61,75,10.29,NU,1602712852
354,Marzuq,14.4,46.47,70.88,23,0,3.94,YE,1602712853
355,Kerman,30.28,57.08,42.8,15,0,2.08,IR,1602712855
356,Gornopravdinsk,60.05,69.9,36.52,93,100,15.28,RU,1602712856
357,Tuktoyaktuk,69.45,-133.04,26.6,86,90,19.46,CA,1602712858
358,Esim,4.87,-2.24,77.09,89,21,8.95,GH,1602712859
359,Bullhead City,35.15,-114.57,100.0,7,75,9.17,US,1602712631
360,Bereda,43.27,-7.54,53.01,100,27,1.99,ES,1602712861
361,Faya,18.39,42.45,60.8,59,0,4.14,SA,1602712862
362,Sabha,27.04,14.43,80.2,23,1,13.96,LY,1602712863
363,Formosa,-26.18,-58.18,73.4,69,90,19.46,AR,1602712864
364,Wewak,-3.55,143.63,78.24,84,99,5.1,PG,1602712865
365,Senno,59.53,33.92,42.01,87,100,1.99,RU,1602712866
366,Olinda,-8.01,-34.86,80.6,74,75,9.17,BR,1602712775
367,Gemeente Wageningen,51.97,5.67,48.99,81,90,11.41,NL,1602712625
368,São Fidélis,-21.65,-41.75,78.8,78,74,6.93,BR,1602712710
369,Eha Amufu,6.66,7.76,73.9,93,49,5.99,NG,1602712873
370,Mindelo,16.89,-24.98,80.6,78,75,19.46,CV,1602712874
371,Payo,-3.75,103.64,72.43,89,100,2.19,ID,1602712875
372,Makushino,55.21,67.24,47.44,54,98,13.24,RU,1602712876
373,Te Anau,-45.42,167.72,41.31,72,5,0.96,NZ,1602712795
374,Phonhong,18.5,102.42,74.01,94,82,0.89,LA,1602712879
375,Biltine,14.53,20.92,86.52,16,58,7.63,TD,1602712880
376,Hope,33.67,-93.59,82.0,31,0,3.0,US,1602712627
377,Guánica,17.97,-66.91,75.99,94,92,3.0,PR,1602712882
378,Paphos,34.77,32.42,68.0,82,40,6.93,CY,1602712883
379,Henties Bay,-22.12,14.28,59.0,90,0,5.99,NA,1602712884
380,Valparaíso,-33.04,-71.63,59.0,72,1,6.93,CL,1602712885
381,Port Augusta,-32.5,137.77,75.0,31,20,14.99,AU,1602712886
382,Saint-Pierre,-21.34,55.48,73.4,78,40,3.36,RE,1602712887
383,Fort Nelson,58.81,-122.7,26.6,79,90,5.82,CA,1602712888
384,Tiarei,-17.53,-149.33,86.0,62,75,16.11,PF,1602712890
385,College,64.86,-147.8,26.01,53,75,4.7,US,1602712891
386,Sechura,-5.56,-80.82,73.2,62,17,13.94,PE,1602712892
387,Yar-Sale,66.83,70.83,31.48,91,24,12.86,RU,1602712893
388,Chumikan,54.72,135.31,29.39,87,99,18.1,RU,1602712894
389,Elizabeth City,36.29,-76.25,73.4,40,1,9.17,US,1602712635
390,Palau,7.5,134.62,75.2,100,90,4.63,PW,1602712818
391,Loudéac,48.18,-2.75,54.0,76,75,13.87,FR,1602712897
392,Port Moresby,-9.44,147.18,80.6,83,20,11.41,PG,1602712898
393,Siocon,7.71,122.14,77.85,87,100,8.21,PH,1602712899
394,Meulaboh,4.14,96.13,77.68,78,100,3.62,ID,1602712900
395,Whitehorse,60.72,-135.05,39.99,59,20,2.24,CA,1602712678
396,Comodoro Rivadavia,-45.87,-67.5,59.0,47,16,16.11,AR,1602712903
397,Terrace Bay,48.78,-87.1,41.0,93,90,6.93,CA,1602712904
398,Ola,59.58,151.28,37.63,79,100,9.1,RU,1602712905
399,Edd,13.93,41.69,84.42,65,0,2.06,ER,1602712906
400,Zhigansk,66.77,123.37,11.28,94,27,6.42,RU,1602712907
401,Mitsamiouli,-11.38,43.28,77.7,83,81,5.37,KM,1602712908
402,Ginda,30.69,78.49,57.16,37,0,5.91,IN,1602712909
403,Sémbé,1.65,14.58,69.35,91,52,2.93,CG,1602712910
404,Hambantota,6.12,81.12,77.0,100,5,5.82,LK,1602712911
405,Hobyo,5.35,48.53,79.99,82,51,19.46,SO,1602712912
406,Kurchum,48.57,83.65,41.16,66,47,5.75,KZ,1602712915
407,Augustów,53.84,22.98,41.67,91,2,5.26,PL,1602712916
408,Lumberton,34.62,-79.01,78.8,44,1,4.88,US,1602712635
409,Touros,-5.2,-35.46,78.8,78,20,9.17,BR,1602712918
410,Lokosovo,61.13,74.82,34.0,87,97,10.8,RU,1602712919
411,Katsuura,35.13,140.3,66.0,78,100,3.0,JP,1602712920
412,Kindu,-2.95,25.95,72.77,88,6,0.67,CD,1602712921
413,Ocós,14.51,-92.19,87.8,79,40,11.41,GT,1602712922
414,Caxito,-8.58,13.66,75.2,78,20,8.05,AO,1602712923
415,Okha,53.57,142.95,33.85,85,92,13.42,RU,1602712926
416,Sinnamary,5.38,-52.95,81.09,76,0,10.47,GF,1602712927
417,Inverell,-29.78,151.12,64.99,70,0,1.01,AU,1602712928
418,Dubbo,-32.25,148.62,62.6,77,34,8.05,AU,1602712930
419,Taldan,53.67,124.8,21.87,87,65,7.31,RU,1602712931
420,Port Hardy,50.7,-127.42,50.0,93,75,4.7,CA,1602712932
421,Gigmoto,13.78,124.39,79.88,82,100,3.96,PH,1602712933
422,Bubaque,11.28,-15.83,82.0,78,21,7.34,GW,1602712934
423,Ilebo,-4.32,20.58,71.91,88,4,1.57,CD,1602712935
424,Saint-François,46.42,3.91,42.8,87,23,5.82,FR,1602712937
425,Otane,-39.88,176.63,46.0,90,100,1.01,NZ,1602712938
426,Poum,-20.23,164.02,75.27,82,100,7.63,NC,1602712939
427,Mariano Comense,45.69,9.18,55.0,74,84,1.01,IT,1602712940
428,Verkhoyansk,67.54,133.38,18.68,96,100,3.33,RU,1602712868
429,Umm Kaddadah,13.6,26.69,88.79,12,35,6.96,SD,1602712942
430,Boguchany,58.38,97.45,38.77,92,100,11.95,RU,1602712943
431,Waingapu,-9.66,120.26,78.44,75,58,3.62,ID,1602712944
432,Llangefni,53.26,-4.31,53.6,81,100,11.41,GB,1602712945
433,Inuvik,68.35,-133.72,24.8,73,20,3.36,CA,1602712948
434,Puerto Colombia,10.99,-74.95,84.2,79,75,4.7,CO,1602712949
435,Morgantown,39.63,-79.96,69.8,32,1,4.7,US,1602712812
436,Saint Simons,31.14,-81.39,77.0,88,75,11.41,US,1602712951
437,Russell,32.35,-85.2,84.2,48,1,4.7,US,1602712952
438,Codrington,-38.27,141.97,60.91,83,100,4.94,AU,1602712953
439,Aljezur,37.32,-8.8,55.0,84,26,1.99,PT,1602712954
440,Kuril'sk,45.23,147.88,48.06,65,48,19.01,RU,1602712955
441,Khomeyn,33.64,50.08,46.29,40,0,1.07,IR,1602712956
442,Martano,40.2,18.3,69.01,93,75,4.7,IT,1602712958
443,Lokoja,7.8,6.74,76.35,88,85,3.33,NG,1602712959
444,Sept-Îles,50.2,-66.38,48.2,93,90,5.82,CA,1602712961
445,Lata,40.16,-8.33,57.0,86,0,1.99,PT,1602712962
446,Santa Isabel,-23.32,-46.22,78.8,73,46,6.93,BR,1602712963
447,Buta,2.79,24.73,70.65,95,30,1.39,CD,1602712964
448,Mentougou,39.94,116.09,53.01,93,5,2.24,CN,1602712965
449,‘Āhuimanu,21.44,-157.84,84.2,58,20,11.41,US,1602712966
450,Nabire,-3.37,135.48,75.42,93,99,1.39,ID,1602712968
451,Salalah,17.02,54.09,78.8,74,40,3.36,OM,1602712969
452,Alexandria,31.22,29.96,75.2,73,79,5.82,EG,1602712843
453,Elliot,-31.33,27.85,55.72,35,0,6.38,ZA,1602712971
454,Beloha,-25.17,45.05,61.29,88,0,5.97,MG,1602712972
455,Oranjemund,-28.55,16.43,65.89,55,0,8.12,NA,1602712973
456,Marsh Harbour,26.54,-77.06,82.13,70,49,11.21,BS,1602712974
457,Ketchikan,55.34,-131.65,51.8,71,40,9.17,US,1602712975
458,Macaúbas,-13.02,-42.7,79.03,32,0,4.74,BR,1602712978
459,Douentza,15.0,-2.95,90.55,21,12,1.92,ML,1602712979
460,Kruisfontein,-34.0,24.73,54.0,85,0,3.96,ZA,1602712980
461,Prymors'k,46.73,36.34,62.64,73,0,8.77,UA,1602712981
462,Isangel,-19.55,169.27,80.6,83,75,3.36,VU,1602712982
463,Manali,13.17,80.27,80.6,69,20,4.7,IN,1602712983
464,Baruun-Urt,46.68,113.28,24.13,84,0,5.97,MN,1602712984
465,Lubao,14.92,120.55,77.0,88,90,2.24,PH,1602712985
466,Mala Vyska,48.64,31.64,52.02,51,0,3.83,UA,1602712986
467,Khuzhir,53.19,107.34,36.77,78,65,11.48,RU,1602712987
468,Lamu,-2.27,40.9,77.97,82,1,11.7,KE,1602712989
469,Invermere,50.52,-116.04,46.99,58,32,1.01,CA,1602712810
470,Vammala,61.33,22.9,32.0,91,75,3.36,FI,1602712992
471,Labuan,5.28,115.24,77.0,88,20,3.36,MY,1602712993
472,Sena Madureira,-9.07,-68.66,78.21,81,78,4.79,BR,1602712994
473,Nuuk,64.18,-51.72,35.6,93,20,1.12,GL,1602712911
474,Stornoway,58.21,-6.39,48.2,87,2,5.82,GB,1602712996
475,Port Lincoln,-34.73,135.87,69.46,49,100,11.1,AU,1602712997
476,Kearney,40.7,-99.08,66.2,29,1,21.92,US,1602712919
477,Coyhaique,-45.58,-72.07,57.2,68,100,8.05,CL,1602712999
478,Tignoan,14.56,121.62,78.8,88,75,4.7,PH,1602713001
479,Ibiapina,-3.92,-40.89,74.98,47,45,4.65,BR,1602713002
480,Rocky Mountain House,52.37,-114.92,41.58,67,60,4.79,CA,1602713003
481,Garmsār,35.22,52.34,54.25,35,0,0.56,IR,1602713004
482,San Rafael,-34.62,-68.33,75.18,24,20,13.4,AR,1602713005
483,Honningsvåg,70.98,25.97,39.2,64,75,20.8,NO,1602713006
484,Tazovsky,67.47,78.7,31.21,93,79,19.48,RU,1602713007
485,Maués,-3.38,-57.72,84.38,59,72,1.32,BR,1602713008
486,Neepawa,50.23,-99.47,42.8,35,75,21.92,CA,1602713009
487,Katangli,51.71,143.23,30.78,93,62,11.9,RU,1602713010
488,Broome,42.25,-75.83,62.6,36,1,8.05,US,1602713012
489,Manaure,11.78,-72.44,84.2,69,100,7.56,CO,1602713014
490,Ulaangom,49.98,92.07,32.9,81,40,2.06,MN,1602713015
491,Lompoc,34.64,-120.46,100.4,15,1,13.87,US,1602712838
492,Bonavista,48.65,-53.11,51.01,80,25,7.0,CA,1602713017
493,San Patricio,28.02,-97.52,89.6,52,40,11.41,US,1602713018
494,Varėna,54.22,24.57,44.6,100,8,4.7,LT,1602713019
495,Coihueco,-36.62,-71.83,69.8,56,0,3.36,CL,1602713020
496,Madimba,-10.4,40.33,77.0,88,20,6.93,TZ,1602713021
497,Garissa,-0.45,39.64,76.21,75,71,15.01,KE,1602713022
498,Manyana,-23.4,21.72,74.32,27,0,9.53,BW,1602713023
499,Huarmey,-10.07,-78.15,67.26,71,14,10.29,PE,1602713024
500,Wodonga,-36.12,146.88,63.0,93,26,6.53,AU,1602713025
501,Ambilobe,-13.2,49.05,72.57,73,17,3.56,MG,1602713027
502,Sola,-13.88,167.55,84.2,74,75,6.89,VU,1602713028
503,Cyangugu,-2.48,28.91,61.5,85,46,1.16,RW,1602713029
504,Marsciano,42.91,12.34,55.99,45,100,8.99,IT,1602713031
505,Ankpa,7.37,7.63,72.28,93,48,3.65,NG,1602713032
506,Gossaigaon,26.45,89.99,72.7,73,74,3.18,IN,1602713033
507,La Trinidad,16.45,120.59,62.17,100,96,4.72,PH,1602713034
508,Meridian,43.61,-116.39,59.0,30,1,11.41,US,1602712857
509,Camapuã,-19.53,-54.04,88.52,35,65,6.96,BR,1602713036
510,Rabak,13.18,32.74,85.42,49,16,12.55,SD,1602713037
511,Dilla,6.41,38.31,62.31,83,100,2.44,ET,1602713038
512,Vestmanna,62.16,-7.17,44.6,81,24,4.47,FO,1602713039
513,Karasjok,69.47,25.51,37.4,74,99,32.21,NO,1602713041
514,Meoqui,28.28,-105.48,89.6,13,75,5.82,MX,1602713042
515,Tam Ky,15.57,108.48,77.0,100,75,2.24,VN,1602712852
516,Quatre Cocos,-20.21,57.76,71.6,88,20,3.36,MU,1602713045
517,Houma,29.6,-90.72,84.99,58,1,8.05,US,1602713046
518,Cairns,-16.92,145.77,78.01,69,16,12.75,AU,1602712769
519,Egvekinot,66.32,-179.17,29.28,98,100,6.31,RU,1602713048
520,Harper,4.38,-7.72,76.48,90,41,6.64,LR,1602713049
521,Bayir,37.27,28.22,62.6,88,20,4.7,TR,1602713050
522,Alice Springs,-23.7,133.88,75.0,39,0,7.49,AU,1602712869
523,Marneuli,41.48,44.81,59.0,77,53,2.24,GE,1602713052
524,San Sebastian,43.31,-1.98,57.2,62,40,5.82,ES,1602713053
525,Brigham City,41.51,-112.02,64.4,11,1,14.99,US,1602713054
526,Badvel,14.75,79.05,74.23,76,62,2.59,IN,1602713055
527,Ol'ga,43.74,135.29,33.3,85,0,6.78,RU,1602713056
528,Fuerte Olimpo,-21.04,-57.87,93.72,34,36,4.56,PY,1602713058
529,Havre-St-Pierre,50.23,-63.6,46.4,93,90,20.8,CA,1602713059
530,Chapais,49.78,-74.85,42.8,93,90,6.93,CA,1602713060
531,Uvel'skiy,54.44,61.36,46.63,52,38,10.49,RU,1602713061
532,Walvis Bay,-22.96,14.51,59.0,87,0,6.93,NA,1602713062
533,Bull Savanna,17.89,-77.59,81.07,78,5,5.73,JM,1602713063
534,Sampit,-2.53,112.95,72.52,98,100,3.09,ID,1602713064
535,Zliten,32.47,14.57,73.36,67,0,17.4,LY,1602713065
536,Aksu,41.12,80.26,50.23,44,24,5.01,CN,1602713066
537,Manoel Urbano,-8.84,-69.26,72.84,92,96,4.61,BR,1602713068
538,Provideniya,64.38,-173.3,35.6,88,90,8.95,RU,1602713069
539,Katete,-0.78,29.75,61.5,96,89,3.49,UG,1602713071
540,Nadym,65.53,72.52,31.08,93,0,14.92,RU,1602713072
541,Tākestān,36.07,49.7,53.02,41,0,2.68,IR,1602713073
542,Llaillay,-32.85,-70.97,71.01,77,5,9.17,CL,1602713074
543,Ust-Tsilma,65.44,52.15,31.62,97,60,4.18,RU,1602713075
544,Talas,38.69,35.55,51.8,50,0,3.36,TR,1602713076
545,Husavik,66.04,-17.34,42.8,70,100,12.75,IS,1602713077
546,Pundaguitan,6.37,126.17,81.32,78,99,10.83,PH,1602713078
547,Mayo,38.89,-76.51,71.6,43,1,6.93,US,1602713079
548,Barabai,-2.58,115.38,75.69,90,95,1.16,ID,1602713080
549,Pacific Grove,36.62,-121.92,82.99,53,1,4.7,US,1602713082
550,Port Hawkesbury,45.62,-61.35,62.01,100,90,9.17,CA,1602713083
551,Hailar,49.2,119.7,25.3,84,0,7.43,CN,1602713084
552,Kununurra,-15.77,128.73,68.0,94,46,2.33,AU,1602713024
553,Arrondissement de Parthenay,46.67,-0.42,46.99,86,72,1.01,FR,1602713088
554,Arona,28.1,-16.68,73.99,78,20,14.99,ES,1602713089
555,Ponta Porã,-22.54,-55.73,80.6,57,31,6.93,BR,1602713090
556,Manggar,-2.88,108.27,75.81,82,100,8.08,ID,1602713091
557,Koslan,63.46,48.9,31.35,96,5,1.88,RU,1602713092
558,Beloslav,43.18,27.7,55.4,100,0,0.92,BG,1602713094
559,Avenal,36.0,-120.13,88.0,31,0,14.0,US,1602713095
560,Petropavlovsk-Kamchatskiy,53.05,158.65,44.6,100,40,2.24,RU,1602713096
561,Port Huron,42.97,-82.42,59.0,51,20,12.75,US,1602713097
562,Susanville,40.42,-120.65,77.0,16,1,4.7,US,1602713098
563,Podgornoye,51.73,39.15,55.4,71,54,2.24,RU,1602713099
564,La Ronge,55.1,-105.28,32.0,72,40,19.46,CA,1602712986
565,Bealanana,-14.55,48.73,62.73,85,74,2.57,MG,1602713101
566,Veinticinco de Mayo,-35.43,-60.17,63.75,60,41,12.95,AR,1602713102
567,Havøysund,71.0,24.66,37.4,73,75,28.86,NO,1602713103
568,Banjar,-8.19,114.97,80.6,88,75,10.29,ID,1602713105
569,Sambava,-14.27,50.17,72.14,88,58,8.72,MG,1602713106
570,Port-Gentil,-0.72,8.78,78.8,83,75,12.75,GA,1602713107
571,Kalanguy,51.02,116.52,21.27,93,1,3.27,RU,1602713108
