,City,Lat,Lng,Max Temp,Humidity,Cloudiness,Wind Speed,Country,Date
0,Punta Arenas,-53.15,-70.92,46.4,70,75,9.17,CL,1602852059
1,Yulara,-25.24,130.99,86.0,17,0,8.05,AU,1602852060
2,Douglas,41.3,-96.17,36.0,86,40,5.82,US,1602852061
3,Xiaoweizhai,26.19,107.51,52.81,90,100,6.96,CN,1602851766
4,Vaini,-21.2,-175.2,75.2,94,90,5.82,TO,1602852064
5,Ushuaia,-54.8,-68.3,44.6,65,20,12.75,AR,1602851921
6,Bredasdorp,-34.53,20.04,73.4,60,0,18.34,ZA,1602852068
7,Mataura,-46.19,168.86,44.01,81,94,0.22,NZ,1602852069
8,La Ronge,55.1,-105.28,23.0,62,90,9.17,CA,1602852070
9,Torbay,47.67,-52.73,53.01,100,90,5.82,CA,1602852071
10,Ahipara,-35.17,173.17,49.3,85,9,1.95,NZ,1602852072
11,Umm Kaddadah,13.6,26.69,98.74,9,0,12.01,SD,1602852073
12,Gizo Government Station,-8.1,156.84,82.0,74,2,3.98,SB,1602852074
13,Katsuura,35.13,140.3,62.6,72,75,17.22,JP,1602852075
14,Ballina,-28.87,153.57,62.6,93,0,4.23,AU,1602852076
15,Busselton,-33.65,115.33,57.0,49,0,15.52,AU,1602852078
16,Rondonópolis,-16.47,-54.64,93.52,38,20,1.77,BR,1602851922
17,Gucheng,35.91,111.32,56.46,34,0,4.79,CN,1602852080
18,Oskemen,49.96,82.61,51.8,66,0,6.71,KZ,1602852081
19,Sarakhs,36.54,61.16,77.0,23,0,6.93,IR,1602852082
20,Provideniya,64.38,-173.3,39.2,94,100,16.55,RU,1602852083
21,Grindavik,63.84,-22.43,48.2,81,90,3.36,IS,1602852084
22,Arraial do Cabo,-22.97,-42.03,73.4,73,75,10.29,BR,1602852085
23,Igarka,67.47,86.58,24.48,98,95,6.44,RU,1602852086
24,Hong Kong,22.29,114.16,81.0,79,43,3.0,HK,1602851925
25,Iquique,-20.22,-70.14,60.8,72,100,9.17,CL,1602851958
26,Rikitea,-23.12,-134.97,73.4,79,100,17.16,PF,1602852089
27,Constitución,-35.33,-72.42,57.76,76,6,11.7,CL,1602852090
28,Hobart,-42.88,147.33,46.4,65,100,5.82,AU,1602851820
29,Lebu,-37.62,-73.65,56.41,75,0,5.08,CL,1602852093
30,New Norfolk,-42.78,147.06,43.0,67,100,0.58,AU,1602852094
31,Port Elizabeth,-33.92,25.57,69.8,77,20,21.92,ZA,1602852095
32,Cape Town,-33.93,18.42,84.2,25,0,12.75,ZA,1602852090
33,George Town,5.41,100.34,84.2,79,20,5.82,MY,1602852097
34,Dikson,73.51,80.55,29.12,96,100,8.84,RU,1602852098
35,Hilo,19.73,-155.09,73.4,73,75,4.7,US,1602852099
36,Albany,42.6,-73.97,52.0,84,100,2.33,US,1602851996
37,Ancud,-41.87,-73.82,55.99,100,56,4.7,CL,1602852101
38,Honningsvåg,70.98,25.97,36.41,82,100,9.46,NO,1602852102
39,Namatanai,-3.67,152.43,80.38,76,40,8.77,PG,1602852103
40,Puerto Ayora,-0.74,-90.35,70.0,89,98,4.0,EC,1602852104
41,Biltine,14.53,20.92,100.2,9,0,10.69,TD,1602852105
42,Dunedin,-45.87,170.5,45.0,84,68,1.99,NZ,1602852106
43,Yar-Sale,66.83,70.83,31.91,97,100,14.94,RU,1602852107
44,Sulangan,11.14,123.72,84.2,73,100,7.18,PH,1602852110
45,Sitka,57.05,-135.33,46.4,65,40,5.82,US,1602852111
46,Mīrābād,30.44,61.84,73.44,18,0,12.48,AF,1602852112
47,Mar del Plata,-38.0,-57.56,61.0,100,90,11.41,AR,1602852038
48,Imeni Poliny Osipenko,52.42,136.49,33.17,82,74,5.21,RU,1602852114
49,Port Augusta,-32.5,137.77,62.01,93,90,12.75,AU,1602852115
50,Tuatapere,-46.13,167.68,44.01,81,97,1.32,NZ,1602852116
51,Avarua,-21.21,-159.78,69.8,77,100,2.24,CK,1602852117
52,Fortuna,40.6,-124.16,50.0,87,1,6.93,US,1602852116
53,Valleyview,55.07,-117.29,29.21,94,100,5.06,CA,1602852119
54,Labuhan,-6.88,112.21,81.73,71,1,8.95,ID,1602852121
55,Tessalit,20.2,1.01,100.81,9,0,5.14,ML,1602852124
56,Camden,39.78,-74.97,57.99,94,100,7.4,US,1602852125
57,Conceição do Araguaia,-8.26,-49.26,101.23,32,0,1.34,BR,1602852126
58,East London,-33.02,27.91,68.0,77,75,19.46,ZA,1602852127
59,Sandwick,60.0,-1.25,48.2,87,75,12.75,GB,1602852130
60,Khatanga,71.97,102.5,-1.73,92,0,3.89,RU,1602852131
61,Flinders,-34.58,150.86,57.99,86,100,0.38,AU,1602852132
62,Keta,5.92,0.99,87.8,66,40,13.87,GH,1602852133
63,Puyang,29.46,119.89,59.0,91,100,3.69,CN,1602852134
64,Belyy Yar,53.6,91.39,42.8,93,40,4.79,RU,1602852135
65,Zhigansk,66.77,123.37,21.72,96,100,10.31,RU,1602852137
66,Deep River,46.1,-77.5,45.0,87,90,3.36,CA,1602852139
67,Honiara,-9.43,159.95,78.51,80,23,3.96,SB,1602852140
68,Tiksi,71.69,128.87,21.47,98,96,5.3,RU,1602852141
69,Souillac,-20.52,57.52,80.6,61,20,11.41,MU,1602852142
70,Barrow,71.29,-156.79,17.6,72,40,17.22,US,1602852143
71,Kiryat Gat,31.61,34.76,82.99,42,0,14.5,IL,1602852144
72,Rāvar,31.27,56.81,69.66,16,0,7.31,IR,1602852145
73,Bambous Virieux,-20.34,57.76,80.6,61,20,11.41,MU,1602852146
74,Guerrero Negro,27.98,-114.06,71.13,71,0,9.42,MX,1602852148
75,Unaí,-16.36,-46.91,86.52,45,95,4.94,BR,1602852149
76,Mahon,39.89,4.27,59.0,58,40,6.93,ES,1602852151
77,Hofn,64.25,-15.21,46.4,81,0,2.24,IS,1602852152
78,Toora-Khem,52.47,96.11,33.75,92,83,3.15,RU,1602852153
79,Soyo,-6.13,12.37,80.6,78,75,8.05,AO,1602852154
80,Tuktoyaktuk,69.45,-133.04,21.52,96,99,20.02,CA,1602852155
81,Paragominas,-2.97,-47.48,89.74,51,20,5.12,BR,1602852156
82,Castro,-24.79,-50.01,65.62,65,0,8.93,BR,1602852158
83,Butaritari,3.07,172.79,82.09,74,0,14.18,KI,1602852160
84,Nanortalik,60.14,-45.24,42.12,76,36,11.25,GL,1602852162
85,Codrington,-38.27,141.97,51.19,95,100,3.91,AU,1602852163
86,Voi,-3.39,38.56,87.17,36,61,17.45,KE,1602852164
87,Saurimo,-9.66,20.39,80.6,65,40,3.83,AO,1602852165
88,Chul'man,56.85,124.91,26.4,97,100,2.71,RU,1602852166
89,Cabo San Lucas,22.89,-109.91,77.0,52,0,1.01,MX,1602852168
90,Hermanus,-34.42,19.23,82.0,46,0,5.01,ZA,1602852169
91,Arboletes,8.85,-76.43,81.97,79,0,3.13,CO,1602852170
92,Ukiah,39.15,-123.21,62.01,71,1,3.33,US,1602852171
93,Monte Alegre,-2.01,-54.07,87.1,56,43,5.64,BR,1602852173
94,Ishigaki,24.34,124.16,78.8,83,40,17.22,JP,1602851880
95,San Jerónimo,-11.95,-75.28,52.95,55,30,0.78,PE,1602852175
96,Chokurdakh,70.63,147.92,31.93,99,100,10.27,RU,1602852176
97,Beloha,-25.17,45.05,79.11,57,0,19.06,MG,1602852177
98,Laguna,38.42,-121.42,62.01,67,1,5.08,US,1602852178
99,Dekernes,31.09,31.59,84.2,58,0,9.17,EG,1602852179
100,Norman Wells,65.28,-126.83,19.4,85,75,10.29,CA,1602851997
101,Saint-Philippe,-21.36,55.77,80.6,65,40,6.93,RE,1602852182
102,São Filipe,14.9,-24.5,82.72,73,100,3.2,CV,1602852184
103,Muroto-misakicho,33.28,134.15,69.58,60,91,12.03,JP,1602852186
104,San Quintín,30.48,-115.95,69.82,58,2,6.69,MX,1602852188
105,Cidreira,-30.18,-50.21,67.84,69,15,14.5,BR,1602852189
106,Carnarvon,-24.87,113.63,69.8,88,0,23.04,AU,1602852190
107,Çumra,37.57,32.77,77.0,23,0,2.24,TR,1602852191
108,Kahului,20.89,-156.47,73.0,73,1,1.79,US,1602852139
109,San Andrés,12.58,-81.7,82.4,83,90,11.41,CO,1602852194
110,Nome,64.5,-165.41,37.4,93,90,27.51,US,1602852195
111,Upernavik,72.79,-56.15,35.83,78,100,2.98,GL,1602852196
112,Hithadhoo,-0.6,73.08,83.62,74,88,20.92,MV,1602852198
113,Mattru,7.62,-11.83,91.17,54,96,2.93,SL,1602852199
114,Rocha,-34.48,-54.33,68.04,67,29,9.71,UY,1602852200
115,Tiznit Province,29.58,-9.5,69.19,44,0,10.45,MA,1602852201
116,Cherskiy,68.75,161.3,27.01,94,23,3.2,RU,1602852202
117,Erenhot,43.65,111.98,47.98,43,0,17.49,CN,1602852203
118,Geraldton,-28.77,114.6,66.2,77,2,21.92,AU,1602852204
119,Port Macquarie,-31.43,152.92,64.99,82,93,4.92,AU,1602852205
120,Popondetta,-8.75,148.25,73.08,95,100,4.76,PG,1602852206
121,Paracuru,-3.41,-39.03,82.0,71,7,23.0,BR,1602852204
122,San Jose,37.34,-121.89,70.0,45,1,4.7,US,1602851954
123,Yumen,40.28,97.2,42.84,45,0,8.41,CN,1602852210
124,Marang,5.21,103.21,84.2,79,20,2.24,MY,1602852211
125,Bilma,18.69,12.92,103.15,9,0,6.87,NE,1602852212
126,Waddān,29.16,16.14,100.87,9,93,15.84,LY,1602852213
127,Cloquet,46.72,-92.46,28.4,79,1,3.36,US,1602852214
128,Airai,-8.93,125.41,61.97,94,90,0.78,TL,1602852215
129,San Patricio,28.02,-97.52,68.0,82,90,19.46,US,1602852216
130,Betanzos,43.28,-8.21,64.99,51,100,6.93,ES,1602852217
131,Teya,60.38,92.63,28.58,94,100,8.25,RU,1602852218
132,Port Blair,11.67,92.75,81.05,80,11,9.98,IN,1602852219
133,Belmonte,-15.86,-38.88,78.8,74,75,2.24,BR,1602852221
134,Palu,-0.89,119.87,76.84,79,100,3.27,ID,1602852222
135,São Gabriel da Cachoeira,-0.13,-67.09,82.65,74,66,1.81,BR,1602852223
136,Saskylakh,71.92,114.08,11.53,95,83,3.15,RU,1602852224
137,Waingapu,-9.66,120.26,80.22,70,91,0.94,ID,1602852225
138,Qaanaaq,77.48,-69.36,23.07,81,0,8.01,GL,1602852226
139,Lüderitz,-26.65,15.16,68.07,56,0,5.99,NA,1602852227
140,Oberhaching,48.03,11.6,50.0,97,100,4.68,DE,1602852228
141,Clarksburg,39.28,-80.34,48.2,87,90,3.36,US,1602852229
142,Kapaa,22.08,-159.32,73.4,100,90,6.93,US,1602852230
143,Nikolskoye,59.7,30.79,45.0,60,75,11.18,RU,1602852231
144,Bengkulu,-3.8,102.27,78.89,84,100,4.76,ID,1602852233
145,Zhezkazgan,47.8,67.71,56.73,37,0,2.19,KZ,1602852234
146,Yatou,37.15,122.38,56.1,72,88,7.25,CN,1602852235
147,Kavaratti,10.57,72.64,81.73,77,0,17.18,IN,1602852236
148,Bethel,41.37,-73.41,61.0,82,90,3.36,US,1602852004
149,Conakry,9.54,-13.68,84.2,70,75,4.7,GN,1602852238
150,Port Lincoln,-34.73,135.87,54.81,81,100,15.14,AU,1602852239
151,Faanui,-16.48,-151.75,78.37,80,5,8.97,PF,1602852240
152,Ust'-Omchug,61.15,149.63,18.73,87,76,6.11,RU,1602852241
153,Bluff,-46.6,168.33,44.01,81,24,5.64,NZ,1602852242
154,Sano,36.32,139.58,68.0,14,100,3.83,JP,1602852243
155,Yellowknife,62.46,-114.35,24.8,73,90,16.11,CA,1602852245
156,Qaqortoq,60.72,-46.03,53.6,32,75,16.11,GL,1602852246
157,Rincon,32.3,-81.24,70.0,100,90,3.36,US,1602852247
158,Vetluzhskiy,58.39,45.47,39.81,72,100,5.21,RU,1602852248
159,Esperance,-33.87,121.9,51.8,87,0,8.05,AU,1602852249
160,Arrondissement d'Arcachon,44.59,-1.05,60.01,51,20,6.93,FR,1602852250
161,Arrondissement de Saint-Denis,48.92,2.33,57.0,62,90,10.29,FR,1602852251
162,Baijiantan,45.63,85.18,53.71,41,0,3.09,CN,1602852252
163,Yerbogachën,61.28,108.01,25.3,93,86,11.43,RU,1602852253
164,Pevek,69.7,170.31,37.44,85,83,13.53,RU,1602852255
165,Galiākot,23.52,74.0,89.67,51,64,9.95,IN,1602852256
166,Bisira,8.52,-81.71,62.55,100,4,2.59,PA,1602852001
167,Warmbad,-28.45,18.73,106.3,7,0,15.88,NA,1602852258
168,Dingle,11.0,122.67,77.2,88,99,1.34,PH,1602852259
169,Chimbote,-9.09,-78.58,64.24,81,87,7.05,PE,1602852260
170,Tasiilaq,65.61,-37.64,37.4,93,75,3.36,GL,1602852261
171,Kaitangata,-46.28,169.85,44.01,82,72,8.01,NZ,1602852262
172,Atuona,-9.8,-139.03,78.24,77,1,18.77,PF,1602852264
173,Dolton,41.64,-87.61,37.4,80,1,4.7,US,1602852265
174,Catalão,-18.17,-47.95,82.6,51,52,6.96,BR,1602852266
175,Waipawa,-41.41,175.52,51.8,76,100,14.99,NZ,1602852268
176,Arrondissement de Montbrison,45.67,4.08,53.01,87,90,10.29,FR,1602852269
177,Mehamn,71.04,27.85,33.8,85,75,4.7,NO,1602852271
178,Talnakh,69.49,88.4,23.0,92,40,8.95,RU,1602852272
179,Bassano,50.78,-112.47,30.99,82,100,8.23,CA,1602852273
180,Corrente,-3.74,-43.34,91.17,46,35,5.17,BR,1602852274
181,Ponta do Sol,32.67,-17.1,73.4,60,40,11.41,PT,1602852275
182,Yangi Marg`ilon,40.43,71.72,68.0,34,0,4.7,UZ,1602852276
183,Presidencia Roque Sáenz Peña,-26.79,-60.44,81.0,46,41,4.43,AR,1602852277
184,Nara,34.69,135.8,64.99,57,100,4.43,JP,1602852278
185,Forsytheganj,52.63,29.73,53.38,67,57,5.1,BY,1602852280
186,Tezu,27.92,96.17,78.73,62,0,3.38,IN,1602852281
187,Pemangkat,1.17,108.97,80.22,84,100,9.37,ID,1602852282
188,Aripuanã,-9.17,-60.63,88.72,50,1,4.63,BR,1602852283
189,Pacifica,37.61,-122.49,82.4,37,1,11.41,US,1602852072
190,Pychas,56.5,52.44,51.01,69,93,4.0,RU,1602852285
191,Lesogorsk,56.05,99.51,27.91,95,100,3.91,RU,1602852286
192,Port Alfred,-33.59,26.89,69.06,74,93,28.16,ZA,1602852287
193,Araouane,18.9,-3.53,101.86,8,0,13.13,ML,1602852288
194,High Level,58.52,-117.14,14.0,85,1,4.7,CA,1602852129
195,Yaroslavl,57.63,39.87,41.0,80,40,4.47,RU,1602852290
196,Thompson,55.74,-97.86,24.8,85,75,13.87,CA,1602852292
197,Ambon City,-3.7,128.18,78.01,94,40,8.05,ID,1602852293
198,Abéché,13.83,20.83,98.92,10,0,9.04,TD,1602852294
199,Tūkrah,32.53,20.58,92.28,21,0,22.01,LY,1602852295
200,Elko,41.0,-115.5,36.0,53,1,3.36,US,1602852296
201,Cap-Haïtien,19.76,-72.2,80.08,79,0,6.33,HT,1602852297
202,Saldanha,-33.01,17.94,78.8,36,0,12.75,ZA,1602852298
203,Port Hedland,-20.32,118.57,78.8,57,0,16.11,AU,1602852299
204,Humboldt,40.67,-123.92,75.2,87,1,6.93,US,1602852300
205,Chicama,-7.84,-79.15,66.69,73,56,4.45,PE,1602852301
206,Lompoc,34.64,-120.46,62.6,71,1,3.36,US,1602852303
207,Naryan-Mar,67.67,53.09,30.58,93,100,3.29,RU,1602852305
208,Manokwari,-0.87,134.08,80.31,79,100,4.85,ID,1602852306
209,Río Tercero,-32.17,-64.11,73.99,43,0,1.01,AR,1602852308
210,San Cristobal,7.77,-72.22,78.8,65,40,2.24,VE,1602852091
211,Shubarkuduk,49.14,56.49,61.16,33,91,8.72,KZ,1602852069
212,Haines Junction,60.75,-137.51,26.28,92,100,4.92,CA,1602852311
213,Valréas,44.38,4.99,60.01,58,29,26.4,FR,1602852313
214,San Fernando,15.03,120.69,82.4,83,75,2.24,PH,1602852315
215,Zharkent,44.16,80.0,54.0,38,0,1.05,KZ,1602852316
216,Marzuq,14.4,46.47,83.59,14,0,16.96,YE,1602852318
217,Muyinga Province,-2.83,30.33,74.55,63,51,8.48,BI,1602852319
218,Mount Gambier,-37.83,140.77,55.4,93,90,1.63,AU,1602852320
219,Agadez,19.75,10.25,100.65,8,0,4.61,NE,1602852321
220,Kamariótissa,40.48,25.47,77.0,69,20,14.99,GR,1602852322
221,Lucea,18.45,-78.17,84.0,74,20,8.05,JM,1602852324
222,Jamestown,42.1,-79.24,43.0,93,90,4.7,US,1602852085
223,Vila,42.03,-8.16,61.0,53,96,4.0,PT,1602852326
224,Sibu,2.3,111.82,77.0,94,40,3.36,MY,1602852327
225,Grand Gaube,-20.01,57.66,79.0,65,3,8.99,MU,1602852330
226,Palenque/Temp,17.52,-91.97,74.23,88,40,1.59,MX,1602852331
227,Caravelas,-17.71,-39.25,76.15,88,100,7.27,BR,1602852332
228,Ribeira Grande,38.52,-28.7,71.6,68,20,16.11,PT,1602852334
229,Linqiong,30.42,103.46,66.2,55,40,2.24,CN,1602852337
230,Cabrobó,-8.51,-39.31,89.13,28,2,13.24,BR,1602852338
231,Shouguang,36.88,118.74,57.0,67,0,1.43,CN,1602852339
232,Pacific Grove,36.62,-121.92,66.99,45,1,6.93,US,1602852071
233,Kruisfontein,-34.0,24.73,75.99,60,100,8.01,ZA,1602852342
234,Saraland,30.82,-88.07,62.01,91,9,1.99,US,1602852343
235,Canmore,51.08,-115.35,30.2,80,90,4.7,CA,1602852344
236,Umluj,25.02,37.27,91.38,44,0,8.48,SA,1602852345
237,Burnie,-41.07,145.92,48.99,65,99,13.0,AU,1602852347
238,Pangnirtung,66.15,-65.71,37.4,75,90,5.82,CA,1602852348
239,Mahébourg,-20.41,57.7,80.6,61,20,11.41,MU,1602852349
240,Sānchor,24.76,71.77,94.77,38,97,8.1,IN,1602852350
241,Kibakwe,-6.72,36.37,80.8,40,60,9.89,TZ,1602852351
242,Acapulco de Juárez,16.86,-99.89,78.8,83,75,2.24,MX,1602852209
243,Mokhsogollokh,61.47,128.92,23.86,98,100,4.59,RU,1602852354
244,Elk River,45.3,-93.57,35.01,82,100,11.68,US,1602852355
245,Oriximiná,-1.77,-55.87,90.3,47,40,5.41,BR,1602852356
246,Sahuaripa,29.05,-109.23,69.28,34,45,3.58,MX,1602852357
247,Tabou,4.42,-7.35,81.0,78,83,11.92,CI,1602852359
248,Paamiut,61.99,-49.67,42.42,79,100,30.44,GL,1602852360
249,Dudinka,69.41,86.18,23.0,92,40,8.95,RU,1602852362
250,Saint Paul Harbor,57.79,-152.41,35.6,69,1,3.09,US,1602852186
251,Brae,60.4,-1.35,48.2,87,75,12.75,GB,1602852364
252,Smithers,54.78,-127.17,32.0,85,90,9.17,CA,1602852172
253,Nhulunbuy,-12.23,136.77,78.8,74,100,5.82,AU,1602852366
254,Bukama,-9.2,25.85,94.59,33,43,6.67,CD,1602852367
255,Kununurra,-15.77,128.73,84.2,66,47,11.41,AU,1602852369
256,Muros,42.78,-9.06,63.0,66,100,7.0,ES,1602852370
257,Hoa Binh,20.81,105.34,78.8,57,100,13.87,VN,1602852330
258,Husavik,66.04,-17.34,32.0,60,75,4.7,IS,1602852373
259,Tommot,58.96,126.29,34.34,92,100,9.15,RU,1602852374
260,Al Bardīyah,31.76,25.09,86.32,34,0,4.32,LY,1602852375
261,Jalu,29.03,21.55,98.13,13,0,9.98,LY,1602852376
262,Mpulungu,-8.76,31.11,88.48,34,1,2.15,ZM,1602852378
263,Xinxiang,35.31,113.87,59.59,36,0,2.71,CN,1602852119
264,Vajszló,45.86,17.98,50.0,81,75,6.93,HU,1602852380
265,Severo-Kuril'sk,50.68,156.12,42.37,68,52,25.21,RU,1602852381
266,Nantucket,41.28,-70.1,63.0,93,1,16.11,US,1602852383
267,Iqaluit,63.75,-68.51,33.8,100,90,4.7,CA,1602852384
268,Tautira,-17.73,-149.15,77.0,83,100,11.41,PF,1602852385
269,Roura,4.73,-52.33,84.2,70,20,5.82,GF,1602852386
270,Linfen,36.09,111.52,58.62,31,0,4.9,CN,1602852388
271,Miles City,46.41,-105.84,33.8,74,1,9.17,US,1602852389
272,Laiyang,36.98,120.71,55.0,84,0,5.82,CN,1602852390
273,Kovdor,67.57,30.48,32.47,93,88,6.71,RU,1602852392
274,Puerto Madero,14.72,-92.42,69.8,100,5,2.68,MX,1602852393
275,Asău,46.43,26.4,62.01,78,40,2.8,RO,1602852394
276,Palmer,42.16,-72.33,64.99,87,90,10.29,US,1602852395
277,Mosquera,4.71,-74.23,55.4,76,75,5.82,CO,1602852396
278,Waitati,-45.75,170.57,45.0,85,74,8.01,NZ,1602852397
279,Olafsvik,64.89,-23.71,46.9,78,57,0.27,IS,1602852398
280,Chingirlau,51.09,54.08,62.4,33,100,8.7,KZ,1602852399
281,Vardø,70.37,31.11,35.6,80,40,9.17,NO,1602852401
282,Valparaíso,-33.04,-71.63,55.0,100,90,9.17,CL,1602852293
283,West Wendover,40.74,-114.07,35.6,37,1,0.54,US,1602852405
284,Batié,9.88,-2.92,94.26,46,73,2.55,BF,1602852406
285,Kavieng,-2.57,150.8,82.17,77,100,13.0,PG,1602852407
286,Yala,6.33,101.25,82.4,69,20,3.36,TH,1602852408
287,Plouzané,48.38,-4.62,55.4,71,90,3.36,FR,1602852409
288,Sālūmbar,24.13,74.05,87.8,58,75,6.93,IN,1602852410
289,Marawi,8.0,124.29,75.0,92,100,11.99,PH,1602852411
290,Quatre Cocos,-20.21,57.76,80.6,61,20,11.41,MU,1602852413
291,Lucapa,-8.42,20.74,84.18,57,93,1.66,AO,1602852414
292,Hasaki,35.73,140.83,60.8,77,75,11.41,JP,1602852415
293,Batagay,67.63,134.63,9.95,92,100,2.35,RU,1602852416
294,Kawalu,-7.38,108.21,72.54,92,79,1.57,ID,1602852417
295,Erzin,36.96,36.2,80.01,70,2,8.99,TR,1602852419
296,Bariloche,-41.15,-71.31,50.0,53,0,2.75,AR,1602852420
297,Aklavik,68.22,-135.01,19.4,92,90,8.05,CA,1602852130
298,Vao,-22.67,167.48,69.91,83,22,18.7,NC,1602852422
299,Zhangjiakou,40.81,114.88,46.94,47,0,5.23,CN,1602852423
300,Touros,-5.2,-35.46,86.0,58,75,13.87,BR,1602852424
301,Kirakira,-10.45,161.92,79.68,76,5,2.48,SB,1602852425
302,Djougou,9.71,1.67,86.0,37,8,6.93,BJ,1602852426
303,Buraidah,26.33,43.98,93.2,16,0,2.24,SA,1602852428
304,Mikhaylovka,50.06,43.24,71.01,43,75,5.99,RU,1602852429
305,Nālūt,30.33,10.85,94.57,10,51,9.55,LY,1602852432
306,Kodinsk,58.69,99.18,28.69,96,100,6.69,RU,1602852433
307,Mocuba,-16.84,36.99,90.39,34,0,5.95,MZ,1602852434
308,Conde,-7.26,-34.91,86.0,55,40,11.41,BR,1602852435
309,Rudnogorsk,57.26,103.75,23.4,96,100,5.84,RU,1602852436
310,Saint George,37.1,-113.58,55.4,20,1,3.36,US,1602852214
311,Awjilah,29.11,21.29,98.42,13,0,11.43,LY,1602852439
312,Kushima,31.46,131.23,71.6,64,75,9.17,JP,1602852440
313,Floresta,-8.6,-38.57,90.61,23,38,12.21,BR,1602852356
314,Itoman,26.12,127.67,80.6,61,75,9.17,JP,1602852442
315,Fort-Shevchenko,44.51,50.26,65.43,52,0,15.59,KZ,1602852444
316,Bira,49.0,132.47,30.63,92,77,1.92,RU,1602852445
317,Poso,-1.4,120.75,78.22,80,100,5.14,ID,1602852446
318,Mubi,10.27,13.26,92.17,34,0,5.82,NG,1602852449
319,Rørvik,64.86,11.24,46.4,100,75,10.29,NO,1602852450
320,Iberia,29.95,-91.75,62.6,93,90,16.11,US,1602852451
321,Mata,40.68,-7.46,64.99,38,62,1.99,PT,1602852453
322,Qasigiannguit,68.82,-51.19,35.6,80,75,2.24,GL,1602852454
323,Ugoofaaru,5.67,73.0,82.81,75,78,17.9,MV,1602852455
324,Voh,-20.97,164.7,66.99,88,0,2.37,NC,1602852456
325,Mercedes,-34.65,-59.43,70.0,74,0,3.0,AR,1602852457
326,Khani,41.96,42.96,84.2,37,0,3.36,GE,1602852458
327,Samarai,-10.62,150.67,78.17,86,7,12.73,PG,1602852459
328,Dobreşti,46.85,22.3,61.0,77,75,12.75,RO,1602852460
329,Lorengau,-2.02,147.27,81.61,76,100,7.27,PG,1602852461
330,Makakilo City,21.35,-158.09,78.01,94,1,4.7,US,1602852464
331,Humaitá,-7.51,-63.02,82.15,74,86,3.8,BR,1602852465
332,Pisco,-13.7,-76.22,62.6,88,40,10.29,PE,1602852466
333,Noumea,-22.28,166.46,64.4,93,64,10.8,NC,1602852467
334,Barquisimeto,10.07,-69.32,71.6,100,0,3.36,VE,1602852253
335,Bulawayo,-20.15,28.58,86.04,14,0,13.38,ZW,1602852469
336,Luanda,-8.84,13.23,84.2,70,75,8.05,AO,1602852281
337,Bahía Blanca,-38.72,-62.27,73.92,51,0,13.53,AR,1602852471
338,Arrondissement de Perpignan,42.75,2.75,63.0,41,0,18.34,FR,1602852472
339,Port Hardy,50.7,-127.42,59.0,93,90,5.82,CA,1602852304
340,Curaçá,-8.99,-39.91,88.11,30,11,13.71,BR,1602852475
341,Nizwá,22.93,57.53,89.15,12,0,5.01,OM,1602852476
342,Nioro,13.35,-15.75,92.46,51,71,4.16,GM,1602852477
343,Kommunisticheskiy,61.68,64.48,46.9,83,100,13.18,RU,1602852479
344,Jacareacanga,-6.22,-57.75,84.78,60,79,2.19,BR,1602852480
345,Puerto Suárez,-18.95,-57.8,77.0,88,75,0.51,BO,1602852428
346,Mossamedes,-15.2,12.15,82.4,58,15,11.41,AO,1602852483
347,Santa Vitória do Palmar,-33.52,-53.37,66.94,69,100,9.73,BR,1602852484
348,Naze,28.37,129.48,75.2,83,1,4.7,JP,1602852485
349,Moussoro,13.64,16.49,103.17,13,4,11.16,TD,1602852487
350,Riverton,40.52,-111.94,39.99,59,0,6.93,US,1602852488
351,Newport,51.59,-3.0,54.0,81,95,1.01,GB,1602852489
352,Ljungby,56.83,13.94,50.0,76,75,12.75,SE,1602852490
353,Longyearbyen,78.22,15.64,26.6,63,40,12.75,SJ,1602852491
354,Andapa,-14.65,49.65,76.51,56,57,4.72,MG,1602852492
355,Panzhihua,26.59,101.71,62.35,80,100,3.56,CN,1602852493
356,Coquimbo,-29.95,-71.34,53.6,93,90,8.05,CL,1602852494
357,Morro Bay,35.37,-120.85,64.99,62,1,4.7,US,1602852496
358,San Benito,36.62,-121.08,62.6,50,1,3.24,US,1602852497
359,Adrar,20.5,-10.07,97.16,10,0,10.25,MR,1602852499
360,Strezhevoy,60.73,77.59,37.4,69,100,13.42,RU,1602852500
361,Mamit,23.93,92.48,75.42,90,0,1.16,IN,1602852502
362,Salinópolis,-0.61,-47.36,84.43,67,40,11.95,BR,1602852503
363,Muhafazat Lahij,13.17,44.58,89.01,34,0,13.91,YE,1602852505
364,Culleredo,43.29,-8.39,64.99,55,100,5.82,ES,1602852506
365,Innisfail,-17.53,146.03,69.37,83,10,4.34,AU,1602852507
366,Larap,14.3,122.65,78.55,84,59,2.42,PH,1602852508
367,Flin Flon,54.77,-101.86,24.8,62,90,10.29,CA,1602852509
368,Pinega,64.7,43.39,34.72,89,100,3.71,RU,1602852512
369,Malakal,9.53,31.66,94.57,41,58,2.55,SS,1602852513
370,Kisangani,0.52,25.2,80.26,86,100,2.62,CD,1602852516
371,Inhambane,-23.86,35.38,82.4,58,20,12.75,MZ,1602852517
372,Province of Mantua,45.17,10.78,61.0,74,37,4.0,IT,1602852429
373,Vuktyl,63.86,57.31,28.83,98,100,12.77,RU,1602852519
374,Ostrovnoy,68.05,39.51,36.82,79,100,21.45,RU,1602852520
375,Evensk,61.95,159.23,34.59,83,62,11.18,RU,1602852521
376,Klaksvík,62.23,-6.59,44.6,81,98,2.24,FO,1602852523
377,Rawson,-43.3,-65.1,79.3,27,28,19.46,AR,1602852524
378,Alice Springs,-23.7,133.88,80.6,22,0,6.93,AU,1602852332
379,Aberdeen,57.14,-2.1,51.01,76,90,4.7,GB,1602852432
380,Rumphi,-11.02,33.86,85.89,31,0,11.32,MW,1602852527
381,Paita,-5.09,-81.11,64.4,82,75,12.75,PE,1602852528
382,Jamame,0.07,42.75,84.63,58,0,15.48,SO,1602852530
383,Furmanov,57.25,41.11,41.0,80,40,4.47,RU,1602852531
384,San-Pédro,4.75,-6.64,81.84,76,100,10.09,CI,1602852532
385,Bathsheba,13.22,-59.52,86.0,74,40,13.87,BB,1602852533
386,Bilibino,68.05,166.44,23.27,94,2,2.21,RU,1602852536
387,Podporozh'ye,60.91,34.17,38.07,77,53,6.62,RU,1602852537
388,Millinocket,45.66,-68.71,57.2,93,90,4.7,US,1602852538
389,Eureka,40.8,-124.16,75.2,23,1,10.29,US,1602852539
390,Liliongan,7.36,124.79,74.55,93,100,1.25,PH,1602852540
391,Sangīn,32.07,64.84,66.09,21,0,6.85,AF,1602852541
392,Harper,4.38,-7.72,81.27,79,84,12.19,LR,1602852542
393,Floriano,-6.77,-43.02,95.59,33,0,6.4,BR,1602852534
394,Beringovskiy,63.05,179.32,39.02,80,0,11.45,RU,1602852544
395,Ust-Nera,64.57,143.2,16.2,90,98,4.81,RU,1602852546
396,Along,28.17,94.77,73.83,83,0,0.47,IN,1602852548
397,Narsaq,60.92,-46.05,53.6,32,75,16.11,GL,1602852549
398,Pokaran,26.92,71.92,93.11,16,0,10.92,IN,1602852550
399,Muisne,0.6,-80.03,74.97,88,100,12.19,EC,1602852551
400,Praia da Vitória,38.73,-27.07,66.2,88,75,14.03,PT,1602852552
401,Anadyr,64.75,177.48,39.2,86,97,13.42,RU,1602852553
402,Sayyan,15.17,44.32,70.07,20,0,7.27,YE,1602852554
403,Grand-Santi,4.25,-54.38,87.37,49,0,3.83,GF,1602852556
404,Praia,14.92,-23.51,87.8,66,20,9.17,CV,1602852557
405,Chui,-33.7,-53.46,66.6,69,99,9.57,UY,1602852558
406,Benghazi,32.12,20.07,87.1,34,0,17.18,LY,1602852559
407,Fort Nelson,58.81,-122.7,23.0,92,90,4.7,CA,1602852560
408,Solnechnyy,50.72,136.63,30.18,83,40,5.21,RU,1602852561
409,Merauke,-8.47,140.33,78.04,77,100,14.43,ID,1602852562
410,Varanasi,25.33,83.0,89.6,59,0,4.7,IN,1602852564
411,Karaton,-6.34,106.1,80.01,88,75,10.29,ID,1602852566
412,Nuquí,5.71,-77.27,80.08,77,90,3.2,CO,1602852567
413,Abaza,52.66,90.09,39.2,89,95,4.47,RU,1602852568
414,Mergen,49.18,125.22,36.82,75,0,12.28,CN,1602852570
415,Resistencia,-27.46,-58.98,78.01,64,1,6.93,AR,1602852571
416,Gilgit,35.92,74.31,69.33,22,0,0.51,PK,1602852572
417,Guangzhou,23.12,113.25,79.0,61,0,13.42,CN,1602852399
418,Tay Ninh,11.3,106.1,74.7,96,100,5.14,VN,1602852574
419,Yacuiba,-22.04,-63.68,71.6,78,16,1.7,BO,1602852358
420,Butterworth,5.4,100.36,84.2,79,20,5.82,MY,1602852576
421,Maridi,4.92,29.47,83.3,66,98,1.3,SS,1602852578
422,Morondava,-20.28,44.28,81.05,71,37,14.45,MG,1602852579
423,Karema,-6.82,30.44,84.69,48,3,7.4,TZ,1602852580
424,Sabla,12.75,4.71,98.35,27,0,2.53,NG,1602852582
425,Nizhniy Tsasuchey,50.52,115.13,37.87,77,97,11.88,RU,1602852583
426,Avera,33.19,-82.53,64.4,86,1,6.93,US,1602852584
427,Padang,-0.95,100.35,79.7,76,61,2.1,ID,1602852587
428,Ilebo,-4.32,20.58,89.94,51,100,2.64,CD,1602852588
429,Lata,40.16,-8.33,73.99,42,64,3.62,PT,1602852590
430,Kamenka,51.32,42.77,66.99,45,100,13.24,RU,1602852591
431,Mae Hong Son,19.3,97.97,82.4,74,75,3.36,TH,1602852592
432,Uyuni,-20.46,-66.83,48.74,56,98,6.13,BO,1602852428
433,Fairbanks,64.84,-147.72,10.99,84,1,2.51,US,1602852528
434,Vila Franca do Campo,37.72,-25.43,71.6,73,40,10.29,PT,1602852595
435,Te Anau,-45.42,167.72,39.42,92,100,4.18,NZ,1602852596
436,Penzance,50.12,-5.54,53.6,71,40,14.99,GB,1602852597
437,Sfântu Gheorghe,45.87,25.78,61.0,71,100,5.55,RO,1602852598
438,Sydney Mines,46.24,-60.22,55.99,93,40,4.7,CA,1602852599
439,Sinnai,39.3,9.2,69.8,35,40,13.87,IT,1602852600
440,Margate,51.38,1.39,55.0,70,75,1.01,GB,1602852602
441,Lavrentiya,65.58,-171.0,38.82,93,100,29.73,RU,1602852603
442,Zhangye,38.93,100.45,46.53,44,0,2.66,CN,1602852604
443,Atherton,53.52,-2.49,57.99,50,54,5.01,GB,1602852605
444,Alekseyevsk,57.84,108.35,24.62,94,69,6.96,RU,1602852606
445,Bridlington,54.08,-0.19,53.6,71,92,9.17,GB,1602852607
446,Sur,22.57,59.53,83.62,47,0,17.76,OM,1602852609
447,Sovetskiy,61.36,63.58,47.14,84,100,14.14,RU,1602852610
448,Kidal,18.44,1.41,101.77,8,0,4.43,ML,1602852611
449,Vatne,62.57,6.65,51.8,76,20,4.7,NO,1602852614
450,Leningradskiy,69.38,178.42,35.62,91,100,16.15,RU,1602852615
451,Anamur,36.08,32.84,82.4,61,20,8.05,TR,1602852616
452,Kuching,1.55,110.33,82.4,88,20,2.24,MY,1602852617
453,Sabang,5.89,95.32,83.32,76,19,19.57,ID,1602852618
454,Saint-Louis,16.33,-15.0,98.6,47,0,2.24,SN,1602852619
455,Inta,66.03,60.17,29.53,99,100,9.84,RU,1602852620
456,Xichang,27.9,102.26,54.93,65,100,3.83,CN,1602852621
457,Fallon,39.47,-118.78,44.01,50,0,2.89,US,1602852622
458,High Rock,26.62,-78.28,77.0,94,75,4.7,BS,1602852623
459,Birjand,32.87,59.22,71.6,4,0,9.17,IR,1602852624
460,Bamboo,18.39,-77.26,75.2,90,6,6.46,JM,1602852625
461,Goderich,43.75,-81.72,46.0,69,5,3.0,CA,1602852627
462,Lexington,37.99,-84.48,42.01,93,1,3.36,US,1602852628
463,Hervey Bay,-25.3,152.85,68.0,77,0,5.82,AU,1602852629
464,Aksu,41.12,80.26,56.71,35,0,1.77,CN,1602852630
465,Ilulissat,69.22,-51.1,35.6,80,75,2.24,GL,1602852455
466,Mattawa,46.74,-119.9,41.0,93,1,6.13,US,1602852633
467,Hargeisa,9.56,44.06,83.7,30,67,17.4,SO,1602852453
468,Rossosh',51.12,38.51,65.79,58,100,13.98,RU,1602852635
469,Lufilufi,-13.87,-171.6,77.0,100,90,8.05,WS,1602852636
470,Aguadulce,8.25,-80.55,78.84,84,0,2.62,PA,1602852637
471,Maniitsoq,65.42,-52.9,41.63,88,100,22.48,GL,1602852638
472,Lagoa,39.05,-27.98,65.48,83,83,15.28,PT,1602852640
473,Amalāpuram,16.58,82.02,84.2,79,90,4.7,IN,1602852641
474,Marsá Maţrūḩ,31.35,27.25,82.4,51,100,5.82,EG,1602852642
475,Tateyama,34.98,139.87,63.0,69,98,5.01,JP,1602852643
476,Boca do Acre,-8.75,-67.4,79.79,66,0,2.95,BR,1602852644
477,Bataiporã,-22.3,-53.27,76.5,69,68,8.9,BR,1602852645
478,Mahdasht,35.73,50.81,71.6,13,0,4.7,IR,1602852648
479,Tigil',57.8,158.67,33.03,92,84,9.69,RU,1602852649
480,Comodoro Rivadavia,-45.87,-67.5,64.4,42,100,6.93,AR,1602852650
481,Kaa-Khem,51.68,94.73,39.07,76,55,3.98,RU,1602852651
482,Victor Harbor,-35.57,138.62,55.99,88,100,1.01,AU,1602852652
483,Half Moon Bay,37.46,-122.43,80.6,14,1,24.16,US,1602852456
484,Dundalk,39.25,-76.52,55.4,87,90,8.05,US,1602852655
485,Kaabong,3.48,34.15,80.24,43,15,8.86,UG,1602852656
486,Dickinson,29.46,-95.05,63.0,93,90,21.92,US,1602852657
487,Ouidah,6.36,2.09,84.2,79,40,12.75,BJ,1602852658
488,Aswān,24.09,32.91,103.12,11,0,8.21,EG,1602852659
489,Moose Factory,51.26,-80.61,30.2,92,90,8.05,CA,1602852660
490,Xucheng,20.35,110.13,77.0,100,75,17.9,CN,1602852662
491,Abja-Paluoja,58.13,25.35,48.2,57,75,6.93,EE,1602852664
492,Hambantota,6.12,81.12,84.2,79,90,10.29,LK,1602852665
493,Ranong,9.97,98.63,77.0,100,75,3.36,TH,1602852666
494,Khadyzhensk,44.43,39.53,79.81,39,0,2.91,RU,1602852667
495,Boffa,10.17,-14.03,89.71,63,98,1.97,GN,1602852668
496,Buncrana,55.13,-7.45,53.6,66,20,10.29,IE,1602852670
497,Aykhal,66.0,111.5,12.2,78,0,6.71,RU,1602852671
498,Bosaso,11.28,49.18,86.0,79,0,10.29,SO,1602852672
499,Morón,-34.65,-58.62,71.01,72,0,11.41,AR,1602852673
500,Porto-Novo,6.5,2.6,84.2,79,40,12.75,BJ,1602852674
501,Kieta,-6.22,155.63,79.81,74,15,2.93,PG,1602852675
502,Elizabeth City,36.29,-76.25,71.6,94,75,4.7,US,1602852480
503,Krasnoturansk,54.32,91.56,41.0,93,74,3.56,RU,1602852677
504,Goundam,16.41,-3.67,103.71,9,0,9.01,ML,1602852679
505,Glens Falls,43.31,-73.64,53.01,93,90,4.7,US,1602852680
506,Concordia,-31.39,-58.02,66.2,72,75,8.05,AR,1602852681
507,Torit,4.41,32.57,89.96,47,98,2.17,SS,1602852682
508,Gibraltar,36.14,-5.35,69.8,52,20,11.41,GI,1602852432
509,Hay River,60.82,-115.8,24.8,68,75,20.8,CA,1602852684
510,Verkhniy Avzyan,53.53,57.54,49.01,70,25,5.95,RU,1602852686
511,Boulder City,35.98,-114.83,69.8,12,1,17.22,US,1602852663
512,Saint-Leu,-21.15,55.28,80.6,65,40,6.93,RE,1602852688
513,Nago,26.59,127.98,78.8,78,90,6.93,JP,1602852690
514,Panji,-7.73,114.1,79.02,71,49,8.79,ID,1602852691
515,Uíge,-7.61,15.06,80.6,69,40,9.17,AO,1602852693
516,Vila Velha,-20.33,-40.29,79.0,65,1,11.41,BR,1602852442
517,Ayabaca,-4.64,-79.71,58.05,76,80,1.99,PE,1602852695
518,Vostok,46.49,135.88,26.28,92,0,5.41,RU,1602852697
519,Barra de Tecoanapa,16.52,-98.75,77.43,82,60,4.88,MX,1602852698
520,Shelburne,44.08,-80.2,39.0,93,40,4.7,CA,1602852699
521,Artyom,40.47,50.33,69.8,60,0,16.11,AZ,1602852700
522,Maceió,-9.67,-35.74,84.2,54,75,10.29,BR,1602852702
523,Shitkino,56.37,98.35,28.99,94,100,4.56,RU,1602852703
524,Cañete,-37.8,-73.4,62.55,57,0,2.75,CL,1602852704
525,Lincoln,40.8,-96.67,37.99,69,1,5.82,US,1602852705
526,Meulaboh,4.14,96.13,79.57,82,68,0.92,ID,1602852706
527,Nikol'sk,53.72,46.07,57.51,51,100,6.91,RU,1602852707
528,Bocaiúva,-17.11,-43.81,87.22,42,0,8.7,BR,1602852709
529,Ghanzi,-21.57,21.78,95.58,10,2,16.73,BW,1602852710
530,Florø,61.6,5.03,51.8,66,0,2.24,NO,1602852711
531,Dalbandin,28.89,64.41,71.19,16,0,6.73,PK,1602852712
532,Lumberton,34.62,-79.01,71.6,94,90,7.23,US,1602852713
533,Krasnovishersk,60.41,57.08,34.29,87,100,11.63,RU,1602852714
534,Dunbar,38.36,-81.74,48.99,93,90,3.36,US,1602852715
535,Rabo de Peixe,37.8,-25.58,71.6,73,40,10.29,PT,1602852716
536,Kamaishi,39.27,141.88,53.38,68,100,3.56,JP,1602852718
537,Mount Isa,-20.73,139.5,73.4,33,0,7.43,AU,1602852719
538,Enzan,35.7,138.73,61.0,78,100,3.27,JP,1602852720
539,Qingdao,36.1,120.37,55.99,87,0,4.47,CN,1602852435
540,Eydhafushi,5.1,73.07,83.03,73,43,19.19,MV,1602852722
541,Kalmunai,7.42,81.82,82.35,78,11,4.29,LK,1602852723
542,Karratha,-20.74,116.85,73.45,59,0,17.69,AU,1602852724
543,North Platte,41.12,-100.77,33.01,86,75,4.7,US,1602852726
544,Vélingara,13.15,-14.12,94.33,48,51,3.83,SN,1602852727
545,Road Town,18.42,-64.62,82.0,88,40,14.99,VG,1602852630
546,Nemuro,43.32,145.57,51.49,62,100,6.24,JP,1602852729
547,Salamiyah,35.01,37.05,85.77,20,0,6.46,SY,1602852730
548,Gebze,40.8,29.43,78.8,39,1,5.82,TR,1602852729
549,Venado Tuerto,-33.75,-61.97,75.99,50,0,13.0,AR,1602852490
550,Bondoukou,8.03,-2.8,88.72,60,100,1.9,CI,1602852733
551,Colquechaca,-18.67,-66.02,36.52,100,100,4.83,BO,1602852734
552,Los Llanos de Aridane,28.66,-17.92,77.0,65,75,6.93,ES,1602852736
553,Riyadh,24.69,46.72,89.6,14,0,4.7,SA,1602852474
554,Westport,41.14,-73.36,66.2,93,90,6.93,US,1602852738
555,Luzilândia,-3.46,-42.37,94.73,40,41,5.32,BR,1602852739
556,Bodden Town,19.28,-81.25,84.99,88,20,12.24,KY,1602852740
557,Colac,-38.33,143.58,53.01,93,89,3.0,AU,1602852741
558,Santa Maria da Boa Vista,-8.81,-39.83,88.48,29,28,14.43,BR,1602852730
559,Barcelona,41.39,2.16,64.99,42,3,9.17,ES,1602852633
560,Manono,-7.3,27.42,92.46,39,35,5.46,CD,1602852744
561,La Libertad,-2.23,-80.9,73.4,88,90,8.05,EC,1602852745
562,Mumford,5.26,-0.76,80.78,79,100,13.49,GH,1602852746
563,Lillooet,50.69,-121.94,51.8,66,90,17.22,CA,1602852748
564,Castelo do Piauí,-5.32,-41.55,96.76,28,25,8.32,BR,1602852749
565,Puerto Baquerizo Moreno,-0.9,-89.6,69.58,86,100,10.4,EC,1602852750
566,Kushmurun,52.45,64.63,59.72,35,100,13.8,KZ,1602852751
567,Río Gallegos,-51.62,-69.22,50.0,53,40,3.36,AR,1602852683
568,Grand-Lahou,5.14,-5.02,79.95,84,79,8.48,CI,1602852753
569,Alta Floresta,-9.88,-56.09,94.78,32,13,4.5,BR,1602852754
570,Stranda,62.31,6.94,50.0,77,0,1.74,NO,1602852755
571,Qui Nhon,13.77,109.23,79.83,86,100,6.85,VN,1602852687
572,Ambilobe,-13.2,49.05,85.91,48,24,6.64,MG,1602852757
573,Omboué,-1.57,9.26,81.14,67,45,9.93,GA,1602852759
574,Novotitarovskaya,45.24,38.98,80.01,47,72,4.47,RU,1602852760
575,General Roca,-39.03,-67.58,75.2,33,0,6.93,AR,1602852761
576,Zhengjiatun,43.51,123.51,44.73,56,0,9.22,CN,1602852762
577,Montemarciano,43.64,13.31,59.0,87,94,10.29,IT,1602852763
578,Itarema,-2.92,-39.92,87.53,54,20,17.47,BR,1602852764
579,Ngunguru,-35.62,174.5,52.0,88,1,6.22,NZ,1602852607
580,Albanel,48.88,-72.45,44.6,93,90,2.24,CA,1602852766
581,Pimentel,-6.84,-79.93,63.19,85,54,8.3,PE,1602852767
